ISSUER_ID,ISSUER_NAME,LOCATION_NAME,LOCATION_ADDRESS,LATITUDE,LONGITUDE,COUNTRY,COUNTRY_ISO3,POSTCODE,STATE,CITY,SOURCE_URL,SOURCE_TYPE,ACTIVITY_AT_SOURCE,coord_source
IID000000002141568,ASUSTEK COMPUTER INCORPORATION,Media/Press,"Contact form: click, here, Email: media@asus.com",,,,,,,here,https://www.asus.com/us/About_ASUS/Facilities-Branches/,COMPANY WEBSITE,Corporate Office / Branch,
IID000000002141568,ASUSTEK COMPUTER INCORPORATION,ASUS Canada Branch Office,"70 Gough Road, Markham, Ontario L3R 0E9, Canada",,,Canada,,,,Markham,https://www.asus.com/us/About_ASUS/Facilities-Branches/,COMPANY WEBSITE,Corporate Office / Branch,
IID000000002141568,ASUSTEK COMPUTER INCORPORATION,ASUS Mexico Branch Office,"Av. Insurgentes Sur 1647 Piso 10,, Col. San Jose Insurgentes CP. 03900",,,Mexico,,,,,https://www.asus.com/us/About_ASUS/Facilities-Branches/,COMPANY WEBSITE,Corporate Office / Branch,
IID000000002141568,ASUSTEK COMPUTER INCORPORATION,Australia,"Unit 6, 112-118 Talavera Road, North Ryde, NSW 2113, Australia",,,Australia,,,,North Ryde,https://www.asus.com/us/About_ASUS/Facilities-Branches/,COMPANY WEBSITE,Corporate Office / Branch,
IID000000002141568,ASUSTEK COMPUTER INCORPORATION,Hong Kong,"8/F, Ming Tak Commercial Building, 101 Wan Chai Road, Wan Chai, Hong Kong",,,Hong Kong,,,,Ming Tak Commercial Building,https://www.asus.com/us/About_ASUS/Facilities-Branches/,COMPANY WEBSITE,Corporate Office / Branch,
IID000000002141568,ASUSTEK COMPUTER INCORPORATION,Indonesia,"Rukan Sentra Kelapa Gading, Jl. Mandiri Tengah Blok M / I - 7, Jakarta 14240",,,Indonesia,,,,Rukan Sentra Kelapa Gading,https://www.asus.com/us/About_ASUS/Facilities-Branches/,COMPANY WEBSITE,Corporate Office / Branch,
IID000000002141568,ASUSTEK COMPUTER INCORPORATION,Singapore,"15A Changi Business Park Central 1, 05-01 EIGHTRIUM, Singapore 486035",,,Singapore,,,,,https://www.asus.com/us/About_ASUS/Facilities-Branches/,COMPANY WEBSITE,Corporate Office / Branch,
IID000000002141568,ASUSTEK COMPUTER INCORPORATION,South Africa,"6th Floor, Twin Towers West,, Sandton City, Sandton 2196, Johannesburg, Gauteng,, R.S.A",,,South Africa,,,,Twin Towers West,https://www.asus.com/us/About_ASUS/Facilities-Branches/,COMPANY WEBSITE,Corporate Office / Branch,
IID000000002141568,ASUSTEK COMPUTER INCORPORATION,Thailand,"Q.House Sathorn Building, 17th Floor, South Sathorn Rd., Tungmahamek, Sathorn, Bangkok 10120, Thailand",,,Thailand,,,,Tungmahamek,https://www.asus.com/us/About_ASUS/Facilities-Branches/,COMPANY WEBSITE,Corporate Office / Branch,
IID000000002141568,ASUSTEK COMPUTER INCORPORATION,UAE,"Al garhoud area, zalfa building, office 103, dubai UAE, Kisikli / Camlica / Uskudar / Istanbul",,,UAE,,,,Al garhoud area,https://www.asus.com/us/About_ASUS/Facilities-Branches/,COMPANY WEBSITE,Corporate Office / Branch,
IID000000002141568,ASUSTEK COMPUTER INCORPORATION,Bangladesh,"Head Office (Dhaka), 19/2, West Panthapath, Salim Center, (3rd~5th & 7th floor), Dhanmondi, Dhaka-1205.",,,Bangladesh,,,,West Panthapath,https://www.asus.com/us/About_ASUS/Facilities-Branches/,COMPANY WEBSITE,Corporate Office / Branch,
IID000000002141568,ASUSTEK COMPUTER INCORPORATION,India,"4C, Supreme Chambers, 17 18, Veera Desai Road, Industrial Area, Andheri West, Mumbai, Maharashtra 400072, <li>",,,India,,,,Supreme Chambers,https://www.asus.com/us/About_ASUS/Facilities-Branches/,COMPANY WEBSITE,Corporate Office / Branch,
IID000000002141568,ASUSTEK COMPUTER INCORPORATION,Sri Lanka,"302A, Galle Road, Colombo 04.",,,Sri Lanka,,,,Galle Road,https://www.asus.com/us/About_ASUS/Facilities-Branches/,COMPANY WEBSITE,Corporate Office / Branch,
IID000000002141568,ASUSTEK COMPUTER INCORPORATION,Turkey,"Alemdag Caddesi Masaldan Is Merkezi C Blok Daire1, Kisikli / Camlica / Uskudar / Istanbul",,,Turkey,,,,,https://www.asus.com/us/About_ASUS/Facilities-Branches/,COMPANY WEBSITE,Corporate Office / Branch,
IID000000002141568,ASUSTEK COMPUTER INCORPORATION,Vietnam,"110 Nguyen Chi Thanh, District 10, Ho Chi Minh City, Vietnam., Kisikli / Camlica / Uskudar / Istanbul",,,Vietnam,,,,Ho Chi Minh City,https://www.asus.com/us/About_ASUS/Facilities-Branches/,COMPANY WEBSITE,Corporate Office / Branch,
IID000000002141568,ASUSTEK COMPUTER INCORPORATION,Technical Support,"Hotline:, +86-21-34074610, (, 800-820-6655, ), Email:",,,,,,,,https://www.asus.com/us/About_ASUS/Facilities-Branches/,COMPANY WEBSITE,Corporate Office / Branch,
IID000000002141568,ASUSTEK COMPUTER INCORPORATION,ASUSTek UK Ltd.,"1st Floor, Focus 31, West Wing, Mark Road, Hemel Hempstead, HP2 7BW, United Kingdom",,,UK,,,,West Wing,https://www.asus.com/us/About_ASUS/Facilities-Branches/,COMPANY WEBSITE,Corporate Office / Branch,
IID000000002141568,ASUSTEK COMPUTER INCORPORATION,ASUS Nordic AB,"Finlandsgatan 16, 4 Tr., 16474 Kista, Sweden",,,,,,,Sweden,https://www.asus.com/us/About_ASUS/Facilities-Branches/,COMPANY WEBSITE,Corporate Office / Branch,
IID000000002141568,ASUSTEK COMPUTER INCORPORATION,ASUS Computer Czech Republic S.R.O.,"GEMINI BUILDING, NA PANKRACI 127, 140 00 PRAGUE 4, CZECH REPUBLIC",,,,,,,GEMINI BUILDING,https://www.asus.com/us/About_ASUS/Facilities-Branches/,COMPANY WEBSITE,Corporate Office / Branch,
IID000000002141568,ASUSTEK COMPUTER INCORPORATION,ASUS COMPUTER GmbH (Germany),"Harkortstr. 21 - 23, 40880 Ratingen Deutschland, Deutschland 01805 / 010920 ( Mo-Fr / 9-17h ) 0,14€/min aus dem deutschen Festnetz, Deutschland 01805 / 010923 ( Mo-Fr / 10-17h ) 0,14€/min aus dem deutschen Festnetz",,,Germany,,,,,https://www.asus.com/us/About_ASUS/Facilities-Branches/,COMPANY WEBSITE,Corporate Office / Branch,
IID000000002141568,ASUSTEK COMPUTER INCORPORATION,ASUS IBERICA S.L.,"C/ Plomo 5-7, 08038 Barcelona, Spain",,,Spain,,,,Spain,https://www.asus.com/us/About_ASUS/Facilities-Branches/,COMPANY WEBSITE,Corporate Office / Branch,
IID000000002141568,ASUSTEK COMPUTER INCORPORATION,ASUS Europe B.V.,"Technical Support, Notebook Hotline:, +31-(0)591-668190",,,,,,,Technical Support,https://www.asus.com/us/About_ASUS/Facilities-Branches/,COMPANY WEBSITE,Corporate Office / Branch,
IID000000002141568,ASUSTEK COMPUTER INCORPORATION,Asus Multi Store -Loknath Enterprise,"Math Chowmohani, Jail Road, Agartala, Opposite HDFC Bank.",23.8316107,91.2908566,India,IND,799007,Tripura,Agartala,https://www.asus.com/in/microsite/shop-near-me/,COMPANY WEBSITE,Asus Multi-Brand Store,website
IID000000002141568,ASUSTEK COMPUTER INCORPORATION,Asus Multi Store - IT Solution,"Manindra Apartment, 368 TG Road, Ker Chowmani, Ramnagar Agartala, Tripura 799001",23.826403,91.2818815,India,IND,799001,North East -  Tripura,,https://www.asus.com/in/microsite/shop-near-me/,COMPANY WEBSITE,Asus Multi-Brand Store,website
IID000000002141568,ASUSTEK COMPUTER INCORPORATION,Asus Multi Store -INFO SOLUTION SYSTEM,"KRISHNANAGAR, T.G.ROAD, KRISHNANAGAR, AGARTALA, West Tripura, Tripura, 799001",23.837993,91.2702631,India,IND,799001,Tripura,Agartala,https://www.asus.com/in/microsite/shop-near-me/,COMPANY WEBSITE,Asus Multi-Brand Store,website
IID000000002141568,ASUSTEK COMPUTER INCORPORATION,ASUS Multi Store - G I Infotech,"G-45,Opp Hotel Regency, Zarkawt, Aizawl",23.7246822,92.7157866,India,IND,796001,Mizoram,Aizawal,https://www.asus.com/in/microsite/shop-near-me/,COMPANY WEBSITE,Asus Multi-Brand Store,website
IID000000002141568,ASUSTEK COMPUTER INCORPORATION,Asus Exclusive Store-Waves Technologies,"No: TC 91/270(2), J14, Second Floor, Lulu International shopping malls Pvt Ltd, Akkulam, Anayara P O, Trivandrum, Kerala,",8.515376419405449,76.89769345651956,India,IND,695029,Kerala,Thiruvananthapuram,https://www.asus.com/in/microsite/shop-near-me/,COMPANY WEBSITE,Asus Exclusive Store,website
IID000000002141568,ASUSTEK COMPUTER INCORPORATION,Asus Exclusive Store -Waves Technologies -Karamana Trivandrum,"TC46/2294, Next to QRS Karamana Melarannur,Karamana, Trivandrum",8.481042763270175,76.96336272224585,India,IND,685002,Kerala,Thiruvananthapuram,https://www.asus.com/in/microsite/shop-near-me/,COMPANY WEBSITE,Asus Exclusive Store,website
IID000000002141568,ASUSTEK COMPUTER INCORPORATION,Asus Exclusive Store -Logtech Infoway,"Tc-2/209(8),Ebenezer Building,Opp Chaithanya Eye Hospital,Kesavadaaspuram 695004",8.5278359,76.938379,India,IND,695004,Kerala,Thiruvananthapuram,https://www.asus.com/in/microsite/shop-near-me/,COMPANY WEBSITE,Asus Exclusive Store,website
IID000000002141568,ASUSTEK COMPUTER INCORPORATION,ASUS Multi Store - Sunflower Electronics,"G-30,Chanmari,Aizawl",23.7421697,92.73568,India,IND,796007,Mizoram,Aizawal,https://www.asus.com/in/microsite/shop-near-me/,COMPANY WEBSITE,Asus Multi-Brand Store,website
IID000000002141568,ASUSTEK COMPUTER INCORPORATION,ASUS Multi Store - QRS Retail,"Tc-25/2424-9, Raymond Building ,Mg Road 695001",8.4973018,76.9484624,India,IND,695001,Kerala,Thiruvananthapuram,https://www.asus.com/in/microsite/shop-near-me/,COMPANY WEBSITE,Asus Multi-Brand Store,website
IID000000002141568,ASUSTEK COMPUTER INCORPORATION,ASUS Multi Store -Oxygen the digital shop,"Oxygen Digital Tower , Pattom Palace Po , Pattom 695004",8.516961,76.943511,India,IND,695004,Kerala,Thiruvananthapuram,https://www.asus.com/in/microsite/shop-near-me/,COMPANY WEBSITE,Asus Multi-Brand Store,website
IID000000002141568,ASUSTEK COMPUTER INCORPORATION,Asus Exclusive Store -Act Automations,"No 174, SKP Building, opp. to union bank, Vadasery, Nagercoil, Tamil Nadu 629004",8.1926514,77.4300357,India,IND,629001,Tamil Nadu,Nagercoil,https://www.asus.com/in/microsite/shop-near-me/,COMPANY WEBSITE,Asus Exclusive Store,website
IID000000002141568,ASUSTEK COMPUTER INCORPORATION,Asus Exclusive Store -MANFRAME COMPUTERS PVT LTD -UDUPI,"Ground floor, Okude Tower, Udupi-Manipal Hwy, opposite to Bharath Petrol Bunk, Okude Layout, Kunjibettu, Udupi, Karnataka 576102",13.3459403,74.7584404,India,IND,576102,Karnataka,UDUPI,https://www.asus.com/in/microsite/shop-near-me/,COMPANY WEBSITE,Asus Exclusive Store,website
IID000000002141568,ASUSTEK COMPUTER INCORPORATION,Asus Exclusive store -Ipex Technologies,"SANU PALACE, BASEMENT , PVS CIRCLE, MANGALORE, KARNATAKA, - 575003",12.8842699,74.8360918,India,IND,575003,Karnataka,Mangalore,https://www.asus.com/in/microsite/shop-near-me/,COMPANY WEBSITE,Asus Exclusive Store,website
IID000000002141568,ASUSTEK COMPUTER INCORPORATION,"Asus Exclusive Store -Indigo Data Service Pvt Ltd, Shimoga","Ground Floor Below Indian Overseas Bank, Savarline road, Shimoga, Karnataka 577201",13.932298,75.5698329,India,IND,577201,Karnataka,Shimoga,https://www.asus.com/in/microsite/shop-near-me/,COMPANY WEBSITE,Asus Exclusive Store,website
IID000000002141568,ASUSTEK COMPUTER INCORPORATION,ASUS Multi Store - Harsha Retail,"Milagres Jubilee Mall, Falnir Rd, opp. Milagres Church Hall, Hampankatta, Mangalore, Karnataka 575001",13.3423442,74.7190753,India,IND,575001,Karnataka,Mangalore,https://www.asus.com/in/microsite/shop-near-me/,COMPANY WEBSITE,Asus Multi-Brand Store,website
IID000000002141568,ASUSTEK COMPUTER INCORPORATION,ASUS Multi Store -Harsha Udupi 3,"Near City Bus Stand, Udupi",13.344852510680964,74.74916953251575,India,IND,576101,Karnataka,UDUPI,https://www.asus.com/in/microsite/shop-near-me/,COMPANY WEBSITE,Asus Multi-Brand Store,website
IID000000002141568,ASUSTEK COMPUTER INCORPORATION,Asus Multi Store -Reliance Digital(Udupi),"Vinayaka Arcade, Kalsanka, manipal Road, Udupi, Karnataka-576102",13.3457947,74.7534653,India,IND,576101,Karnataka,UDUPI,https://www.asus.com/in/microsite/shop-near-me/,COMPANY WEBSITE,Asus Multi-Brand Store,website
IID000000002141568,ASUSTEK COMPUTER INCORPORATION,ASUS Multi Store - Reliance Digital (City Center-M,"Sf16, 27A, 2Nd Floor, City Centre Mall, K SÂ Rao Road, Hampankatta 575001",12.871262,74.84268,India,IND,575001,Karnataka,Mangalore,https://www.asus.com/in/microsite/shop-near-me/,COMPANY WEBSITE,Asus Multi-Brand Store,website
IID000000002141568,ASUSTEK COMPUTER INCORPORATION,Asus Multi Store -Harsha fiza mall,"Harsha, Fiza by Nexus Mall, Mangaluru, Pandeshwar Road, Pandeshwar, Mangaluru, Karnataka",12.8576198,74.8382536,India,IND,575001,Karnataka,Mangalore,https://www.asus.com/in/microsite/shop-near-me/,COMPANY WEBSITE,Asus Multi-Brand Store,website
IID000000002141568,ASUSTEK COMPUTER INCORPORATION,Asus Multi Store - Reliance Digital Shimoga Bearys Mall,"No S9 to S11, Bearys City Center Mall, Ameer Ahamed Cir, Durgigudi, Shivamogga, Karnataka 577201",13.9298824,75.5739078,India,IND,577201,Karnataka,Shimoga,https://www.asus.com/in/microsite/shop-near-me/,COMPANY WEBSITE,Asus Multi-Brand Store,website
IID000000002141568,ASUSTEK COMPUTER INCORPORATION,Asus Exclusive Store -Ashwath Computers,"Ground Floor, Shop No, 584/1, nearby New Agarwal Bhavan, T. Dasarahalli, Bengaluru, Karnataka 560057",13.0418318,77.5154321,India,IND,560057,Karnataka,Bangalore,https://www.asus.com/in/microsite/shop-near-me/,COMPANY WEBSITE,Asus Exclusive Store,website
IID000000002141568,ASUSTEK COMPUTER INCORPORATION,Asus Exclusive Store -Maxware Technologies,"Shop No 58, Second Floor, Mall of Asia, Byatarayanapura, Yelahanka, Nearby Shell Petrol Bunk, Bengaluru, Karnataka 560092",13.097698,77.59291110000001,India,IND,560092,Karnataka,Bangalore,https://www.asus.com/in/microsite/shop-near-me/,COMPANY WEBSITE,Asus Exclusive Store,website
IID000000002141568,ASUSTEK COMPUTER INCORPORATION,ASUS Exclusive Store-Systech IT Solutions,"No.12, New BEL Rd, Chikkamaranahalli, Amarjyothi Layout, Raj Mahal Vilas 2nd Stage, R.M.V. 2nd Stage, Bengaluru, Karnataka 560054",13.0394952,77.56401450000001,India,IND,560054,Karnataka,Bangalore,https://www.asus.com/in/microsite/shop-near-me/,COMPANY WEBSITE,Asus Exclusive Store,website
IID000000002141568,ASUSTEK COMPUTER INCORPORATION,Asus Multi Store -Pai international Peenya,"728, Tumkur Rd, Opposite Bharati Cinema, Prashanth Nagar, Peenya, Bengaluru, Karnataka 560057",13.040798,77.51706759999999,India,IND,560057,Karnataka,Bangalore,https://www.asus.com/in/microsite/shop-near-me/,COMPANY WEBSITE,Asus Multi-Brand Store,website
IID000000002141568,ASUSTEK COMPUTER INCORPORATION,Asus Multi Store - Reliance Digital (Banaswadi),"No. 705 & 707, 1st Main Road, Ramamurthy Nagar, Outer Ring Road, OMBR Layout, Banaswadi, Bengaluru , Karnataka",13.0163134,77.6784812,India,IND,560043,Karnataka,Bangalore,https://www.asus.com/in/microsite/shop-near-me/,COMPANY WEBSITE,Asus Multi-Brand Store,website
IID000000002141568,ASUSTEK COMPUTER INCORPORATION,ASUS Multi Store-Reliance Digital Banaswadi,"705 and 707, Ramamurthi Nagar Main Rd, OMBR Layout, Banasawadi, Bengaluru, Karnataka 560043",13.0135357,77.6619286,India,IND,560044,Karnataka,Bangalore,https://www.asus.com/in/microsite/shop-near-me/,COMPANY WEBSITE,Asus Multi-Brand Store,website
IID000000002141568,ASUSTEK COMPUTER INCORPORATION,ASUS Multistore-Croma SS Manor,"Ground and 1st Floor S S Manor Chelikere, Outer Ring Rd, Chikka Tayapa Kodandarama, Chikkatayappa Reddy Layout, Kalyan Nagar, Bengaluru, Karnataka 560043",13.0258444,77.6409236,India,IND,560043,Karnataka,Bangalore,https://www.asus.com/in/microsite/shop-near-me/,COMPANY WEBSITE,Asus Multi-Brand Store,website
IID000000002141568,ASUSTEK COMPUTER INCORPORATION,ASUS Multi Store - Reliance Digital(CenturyCorbel),"Century Corbel, Sahakara Nagar, Main Road 560092",13.063651,77.591362,India,IND,560092,Karnataka,Bangalore,https://www.asus.com/in/microsite/shop-near-me/,COMPANY WEBSITE,Asus Multi-Brand Store,website
IID000000002141568,ASUSTEK COMPUTER INCORPORATION,ASUS Multistore-Pai International R.T Nagar,"493, CBI Road Corner , Near HMT Ground, Gangenahalli , Bangalore - 560032",13.0243431,77.5940605,India,IND,560032,Karnataka,Bangalore,https://www.asus.com/in/microsite/shop-near-me/,COMPANY WEBSITE,Asus Multi-Brand Store,website
IID000000002141568,ASUSTEK COMPUTER INCORPORATION,ASUS Multi Store- Reliance Marathalli,"Radisson Blu, No 90/4, ARR Royal, Outer Ring Rd, next to Hotel, Marathahalli, Bengaluru, Karnataka 560037",12.9497536,77.6989318,India,IND,560037,Karnataka,Bangalore,https://www.asus.com/in/microsite/shop-near-me/,COMPANY WEBSITE,Asus Multi-Brand Store,website
IID000000002141568,ASUSTEK COMPUTER INCORPORATION,ASUS Multistore-Pai International Indiranagar,"28/1A 100 Feet Road, Indiranagar Near CMH Road , Bangalore - 560038.",12.9783459,77.64078669999999,India,IND,560038,Karnataka,Bangalore,https://www.asus.com/in/microsite/shop-near-me/,COMPANY WEBSITE,Asus Multi-Brand Store,website
IID000000002141568,ASUSTEK COMPUTER INCORPORATION,Asus Multi Store -Reliance Digital (BEL Rd),"No. 19 and 19A, New BEL Rd, Jaladarshini Layout, Mathikere, Bengaluru, Karnataka",13.0301712,77.5696918,India,IND,560094,Karnataka,Bangalore,https://www.asus.com/in/microsite/shop-near-me/,COMPANY WEBSITE,Asus Multi-Brand Store,website
IID000000002141568,ASUSTEK COMPUTER INCORPORATION,ASUS Multistore-Croma Indiranagara,"767-767/1,hal 2nd Floor, 100 Feet Rd, Indiranagar, Bengaluru, Karnataka 560038",12.9705219,77.6410511,India,IND,560038,Karnataka,Bangalore,https://www.asus.com/in/microsite/shop-near-me/,COMPANY WEBSITE,Asus Multi-Brand Store,website
IID000000002141568,ASUSTEK COMPUTER INCORPORATION,ASUS Multi Store-Relaince Digital (Indiranagar).,"No 768, Sri Krishna Mansion, 12th Main, 768, 100 Feet Rd, HAL 2nd Stage, Stage 3, Indiranagar, Bengaluru, Karnataka 560038",12.963803,77.64132099999999,India,IND,560038,Karnataka,Bangalore,https://www.asus.com/in/microsite/shop-near-me/,COMPANY WEBSITE,Asus Multi-Brand Store,website
IID000000002141568,ASUSTEK COMPUTER INCORPORATION,Asus Multi Store -Pai Internationa Marathahalli,"88, Outer Ring Rd, Munnekolla, Marathahalli, Bengaluru, Karnataka 560037",12.9911568,77.5941671,India,IND,560037,Karnataka,Bangalore,https://www.asus.com/in/microsite/shop-near-me/,COMPANY WEBSITE,Asus Multi-Brand Store,website
IID000000002141568,ASUSTEK COMPUTER INCORPORATION,ASUS Multi Store -  Sakshi Computer & Loptop Shoppee,"34/1, 1St Floor, St. John’S Road, Rukmani Colony, Sivanchetti Gardens,Bangalore-560 042",12.988666,77.5931039,India,IND,560052,Karnataka,Bangalore,https://www.asus.com/in/microsite/shop-near-me/,COMPANY WEBSITE,Asus Multi-Brand Store,website
IID000000002141568,ASUSTEK COMPUTER INCORPORATION,Asus Multi Store -Reliance Digital Prestige Feroz,"No 74, Ground Floor, Prestige Feroz Bldg, Cunningham Rd, near Chandrika Hotel, Vasanth Nagar, Bengaluru, Karnataka 560052",12.9887938,77.592863,India,IND,560052,Karnataka,Bangalore,https://www.asus.com/in/microsite/shop-near-me/,COMPANY WEBSITE,Asus Multi-Brand Store,website
IID000000002141568,ASUSTEK COMPUTER INCORPORATION,Asus Multi Store -Reliance Digital(Brigade Orion),"26/1 Orion mall brigade gateway,Dr Rajkumar road  rajajinagar, Bangalore",13.0110723,77.55499309999999,India,IND,560055,Karnataka,Bangalore,https://www.asus.com/in/microsite/shop-near-me/,COMPANY WEBSITE,Asus Multi-Brand Store,website
IID000000002141568,ASUSTEK COMPUTER INCORPORATION,ASUS Multi Store -Reliance Digital(Mantri Square),"Mantri Mall, Sampige Road, First Floor Shop No - 40, 41, 42, 43 & Second Floor Sf - 40, 41, Malleswaram 560003",12.991711,77.571223,India,IND,560003,Karnataka,Bangalore,https://www.asus.com/in/microsite/shop-near-me/,COMPANY WEBSITE,Asus Multi-Brand Store,website
IID000000002141568,ASUSTEK COMPUTER INCORPORATION,ASUS Multistore-TechPoint Retail Pvt Ltd,"No. 19/10, Gunjur-doddakanneli road, carmelaram post,, opp. Dmart, Bangalore 560035.",12.904275,77.7043727,India,IND,560035,Karnataka,Bangalore,https://www.asus.com/in/microsite/shop-near-me/,COMPANY WEBSITE,Asus Multi-Brand Store,website
IID000000002141568,ASUSTEK COMPUTER INCORPORATION,ASUS Multistore-Reliance Digital ND Elite Mall,"Reliancedigital Retail Ltd., ND Elite No. 871, 2nd Stage, Basaweshwarnagar, Dr Modi Hospital Road, WOC Road, Bengaluru 560086, Karnataka",12.9976631,77.5441298,India,IND,560086,Karnataka,Bangalore,https://www.asus.com/in/microsite/shop-near-me/,COMPANY WEBSITE,Asus Multi-Brand Store,website
IID000000002141568,ASUSTEK COMPUTER INCORPORATION,Asus Multi Store - Reliance Digital ND Elite,"Elite No 871, 2nd Stage, Woc Road, Dr MC Modi Hospital Rd, Basaveshwar Nagar, Bengaluru, Karnataka 560086",12.9975549,77.5441,India,IND,560086,Karnataka,Bangalore,https://www.asus.com/in/microsite/shop-near-me/,COMPANY WEBSITE,Asus Multi-Brand Store,website
IID000000002141568,ASUSTEK COMPUTER INCORPORATION,ASUS Multistore-Lulu connect1,"Opposite Sujatha Theatre, No 19/2, Part of CTS No 2, Mysore Deviation Road, Gopalapura, Ward No 96,Rajaji Nagar, Bengaluru – 560023",12.9812002,77.5637431,India,IND,560023,Karnataka,Bangalore,https://www.asus.com/in/microsite/shop-near-me/,COMPANY WEBSITE,Asus Multi-Brand Store,website
IID000000002141568,ASUSTEK COMPUTER INCORPORATION,Asus Multi Store -Croma Jayanagar,"2nd Blk, Shravanees Krishna Mansion, PN 31, 100 Ft Ring Rd, 2nd Block, Jayanagar, Bengaluru, Karnataka 560011",12.9399756,77.58491,India,IND,560011,Karnataka,Bangalore,https://www.asus.com/in/microsite/shop-near-me/,COMPANY WEBSITE,Asus Multi-Brand Store,website
IID000000002141568,ASUSTEK COMPUTER INCORPORATION,ASUS Multistore-Reliance Digital Ashoka Pillar,"Reliancedigitalexpress Retail Ltd.,  Municipal No.27/1, 100ft Road, 2nd Block, Jayanagar, Bangalore - 560011",12.9386677,77.58499139999999,India,IND,560011,Karnataka,Bangalore,https://www.asus.com/in/microsite/shop-near-me/,COMPANY WEBSITE,Asus Multi-Brand Store,website
IID000000002141568,ASUSTEK COMPUTER INCORPORATION,ASUS Multi Store -Pai International Jayanagar,"25, 100 Feet Road, Opp Rani Sarala Devi School,2nd Block, Jayanagar,Bangalore - 560011.",12.938378,77.584908,India,IND,560011,Karnataka,Bangalore,https://www.asus.com/in/microsite/shop-near-me/,COMPANY WEBSITE,Asus Multi-Brand Store,website
IID000000002141568,ASUSTEK COMPUTER INCORPORATION,ASUS Multistore Reliance Digital-TTMC Vijayanagar,"Reliancedigital Retail Ltd., Traffic & Transit Management Centre, Vijayanagar, Bangalore 560040, Karnataka",12.96551,77.534707,India,IND,560040,Karnataka,Bangalore,https://www.asus.com/in/microsite/shop-near-me/,COMPANY WEBSITE,Asus Multi-Brand Store,website
IID000000002141568,ASUSTEK COMPUTER INCORPORATION,ASUS Multi Store -  Gigabyte Inc,"789,5Th Main,3Rd Cross, Vijayanagar, Bangalore",12.9680322,77.5304726,India,IND,560040,Karnataka,Bangalore,https://www.asus.com/in/microsite/shop-near-me/,COMPANY WEBSITE,Asus Multi-Brand Store,website
IID000000002141568,ASUSTEK COMPUTER INCORPORATION,Bytes Zone - Nimble IT Solutions ,"6, 6, 4th Cross Rd, opposite to BBMP Office, 7th Block West, 7th Block, Jayanagar, Bengaluru, Karnataka 560070",12.9273243,77.5764277,India,IND,560070,Karnataka,Bengaluru,https://www.asus.com/in/microsite/shop-near-me/,COMPANY WEBSITE,Asus Multi-Brand Store,website
IID000000002141568,ASUSTEK COMPUTER INCORPORATION,Asus Multi Store - Croma(Woody's),"Ground floor/First Floor ,Woodys ,45/1-1 17th Main,5th Cross,2nd Phase,Marenahalli Road,J.P Nagar",12.916597,77.591297,India,IND,560078,Karnataka,Bangalore,https://www.asus.com/in/microsite/shop-near-me/,COMPANY WEBSITE,Asus Multi-Brand Store,website
IID000000002141568,ASUSTEK COMPUTER INCORPORATION,ASUS Multistore-Pai International Banashankari,"28, Kathriguppe Main Road, Banashankari 3rd Stage, 3rd Phase, Bangalore - 560085.",12.9306048,77.54337389999999,India,IND,560085,Karnataka,Bangalore,https://www.asus.com/in/microsite/shop-near-me/,COMPANY WEBSITE,Asus Multi-Brand Store,website
IID000000002141568,ASUSTEK COMPUTER INCORPORATION,ASUS Multi Store-Croma Banashankari,"S.R.P. Arcade, 30/31, 6th Phase, Outer Ring Rd, Banashankari 3rd Stage, Bengaluru, Karnataka 560085",12.9242725,77.5529644,India,IND,560085,Karnataka,Bangalore,https://www.asus.com/in/microsite/shop-near-me/,COMPANY WEBSITE,Asus Multi-Brand Store,website
IID000000002141568,ASUSTEK COMPUTER INCORPORATION,Asus Multi Store - Croma Royal Meenakshi Mall Bannerghatta,"Unit No 1, Bannerghatta Rd, Hulimavu, Bengaluru, Karnataka 560076",12.8761666,77.59561440000002,India,IND,560076,Karnataka,Bengaluru,https://www.asus.com/in/microsite/shop-near-me/,COMPANY WEBSITE,Asus Multi-Brand Store,website
IID000000002141568,ASUSTEK COMPUTER INCORPORATION,Asus Multi Store - Reliance Digital Neeladrinagar,"Khata No 184/163273, Ground Floor, Doddatogur, Begur Hobli,Neeladhri Nagar,Bengaluru - 560100",12.8405813,77.6506954,India,IND,560100,Karnataka,Bangalore,https://www.asus.com/in/microsite/shop-near-me/,COMPANY WEBSITE,Asus Multi-Brand Store,website
IID000000002141568,ASUSTEK COMPUTER INCORPORATION,ASUS Multi Store - Mccann Infosys,"347/45, Ground Floor, Rajesh Building, Lamington Road, Opposite Lamington Road Police Station, Mumbai, Maharashtra",18.9618411,72.8133825,India,IND,400007,Maharashtra,Mumbai,https://www.asus.com/in/microsite/shop-near-me/,COMPANY WEBSITE,Asus Multi-Brand Store,website
IID000000002141568,ASUSTEK COMPUTER INCORPORATION,Asus Multi Store - Vijaysales Operahouse,"29, Mama Paramanand Marg, Charni Road East, Opera House, Girgaon, Mumbai, Maharashtra 400004",18.9539819,72.8166351,India,IND,400004,Maharashtra,Mumbai,https://www.asus.com/in/microsite/shop-near-me/,COMPANY WEBSITE,Asus Multi-Brand Store,website
IID000000002141568,ASUSTEK COMPUTER INCORPORATION,ASUS Multi Store - 7 Networks,"22B,Ground Flr,Vijay Chamber,Tribhuvan Rd, Dreamland Cinema, Lamington Rd,",18.9579877,72.8214399,India,IND,400004,Maharashtra,Mumbai,https://www.asus.com/in/microsite/shop-near-me/,COMPANY WEBSITE,Asus Multi-Brand Store,website
IID000000002141568,ASUSTEK COMPUTER INCORPORATION,Asus Multi Store - Croma (Juhu),"Ground Floor,Vasundhara Chs Opp Utpal Shanghvi School,Jvpd,Vile Parle(W) 400049",19.1133635,72.82789450000001,India,IND,400049,Maharashtra,Mumbai City,https://www.asus.com/in/microsite/shop-near-me/,COMPANY WEBSITE,Asus Multi-Brand Store,website
IID000000002141568,ASUSTEK COMPUTER INCORPORATION,ASUS Multi Store - Alfa 5,"Ruby House, 1, Irla Rd, Vile Parle West, Mumbai, Maharashtra 400056",19.1083151,72.8393739,India,IND,400050,Maharashtra,Mumbai,https://www.asus.com/in/microsite/shop-near-me/,COMPANY WEBSITE,Asus Multi-Brand Store,website
IID000000002141568,ASUSTEK COMPUTER INCORPORATION,ASUS Multi Store - Zee Electronics,"Shop no. 1,2,3, Anand Amrut, Tejpal Rd, near Parle Biscuit Factory, Vile Parle East, Mumbai, Maharashtra 400057",19.1040886,72.8451182,India,IND,400057,Maharashtra,Mumbai,https://www.asus.com/in/microsite/shop-near-me/,COMPANY WEBSITE,Asus Multi-Brand Store,website
IID000000002141568,ASUSTEK COMPUTER INCORPORATION,Asus Multi Store -Croma Andheri,"Croma No 2/3/0202, Landmark Bldg, Link Road Andheri Mumbai - 400053",19.1399142,72.8319842,India,IND,400053,Maharashtra,Mumbai City,https://www.asus.com/in/microsite/shop-near-me/,COMPANY WEBSITE,Asus Multi-Brand Store,website
IID000000002141568,ASUSTEK COMPUTER INCORPORATION,Asus Multi Store - Croma Sion,"Croma, PN 112, Gr Flr, Sion Garage Building Sion Koliwada, Road, near Cinemax, Mumbai, Maharashtra 400022",19.0400086,72.8651201,India,IND,400022,Maharashtra,Mumbai City,https://www.asus.com/in/microsite/shop-near-me/,COMPANY WEBSITE,Asus Multi-Brand Store,website
IID000000002141568,ASUSTEK COMPUTER INCORPORATION,ASUS Multi Store -  Wiz World,"Shop No 1, Ruby Apartment, Sir M.V. Road, Between Vishal Hall and WEH Metro Station,, Andheri ( East ), Mumbai, Maharashtra 400069",19.1178627,72.85324159999999,India,IND,400069,Maharashtra,Mumbai,https://www.asus.com/in/microsite/shop-near-me/,COMPANY WEBSITE,Asus Multi-Brand Store,website
IID000000002141568,ASUSTEK COMPUTER INCORPORATION,ASUS Multi Store -Reliance Digital Infinity Mall,"2nd Floor, Infiniti Mall, Unit No. SF 203, New Link Rd, Mindspace, Malad West, Mumbai, Maharashtra 400064",19.1851162,72.83388959999999,India,IND,400064,Maharashtra,Mumbai,https://www.asus.com/in/microsite/shop-near-me/,COMPANY WEBSITE,Asus Multi-Brand Store,website
IID000000002141568,ASUSTEK COMPUTER INCORPORATION,Asus Multi Store -Croma Infiniti Mall,"Croma Unit No Lg 002, Infiniti Mall, New Link Road Malad West Mumbai - 400064",19.1886293,72.8340384,India,IND,400064,Maharashtra,Mumbai City,https://www.asus.com/in/microsite/shop-near-me/,COMPANY WEBSITE,Asus Multi-Brand Store,website
IID000000002141568,ASUSTEK COMPUTER INCORPORATION,Asus Multi Store - VIJAY SALES - CHEMBUR,"VIJAY SALES - CHEMBUR - Bezzola Complex, Sion - Trombay Rd, Swastik Park, Chembur, Mumbai, Maharashtra 400050",19.0544607,72.885845,India,IND,400050,Maharashtra,Mumbai City,https://www.asus.com/in/microsite/shop-near-me/,COMPANY WEBSITE,Asus Multi-Brand Store,website
IID000000002141568,ASUSTEK COMPUTER INCORPORATION,ASUS Multi Store -Croma Kurla,"Croma Ground floor, Global One, Near Phoenix Market city, LBS Marg, Kurla West, MAHARASHTRA, Mumbai, 400070",19.0841261,72.88438769999999,India,IND,400070,Maharashtra,Mumbai City,https://www.asus.com/in/microsite/shop-near-me/,COMPANY WEBSITE,Asus Multi-Brand Store,website
IID000000002141568,ASUSTEK COMPUTER INCORPORATION,Asus Multi Store -Croma - R.K.Studio (Chembur),"Croma - R.K.Studio (Chembur), Ground Floor, MERAKI ARENA, Sion - Trombay Rd, opposite RK Studio, Ghatla, Chembur, Mumbai, Maharashtra 400071",19.0482232,72.907235,India,IND,400071,Maharashtra,Mumbai City,https://www.asus.com/in/microsite/shop-near-me/,COMPANY WEBSITE,Asus Multi-Brand Store,website
IID000000002141568,ASUSTEK COMPUTER INCORPORATION,Asus Multi Store -I.T.HUB (Ambika Technologies),IT HUBShop No 9 Ground floorAnjana CHS LTDS.V RoadNext to HDFC Shimpoli BarnchBorivali WestMum 400092,19.2227884,72.84173059999999,India,IND,400092,Maharashtra,Mumbai City,https://www.asus.com/in/microsite/shop-near-me/,COMPANY WEBSITE,Asus Multi-Brand Store,website
IID000000002141568,ASUSTEK COMPUTER INCORPORATION,Asus Multi Store - Croma (Growel101),"Growel S 101, Address Off Western Express Highway, Akurli Road Kandivali East 400101",19.2033762,72.8593665,India,IND,400101,Maharashtra,Mumbai,https://www.asus.com/in/microsite/shop-near-me/,COMPANY WEBSITE,Asus Multi-Brand Store,website
IID000000002141568,ASUSTEK COMPUTER INCORPORATION,Asus Multi Store -Vijay Sales LBS Raod Ghatkoper,"Rajhans Helix 3, L.B.S Road, Old Shreyas Cinema, Ghatkopar (West), Mumbai-400086",19.0943716,72.9122367,India,IND,400086,Maharashtra,Mumbai City,https://www.asus.com/in/microsite/shop-near-me/,COMPANY WEBSITE,Asus Multi-Brand Store,website
IID000000002141568,ASUSTEK COMPUTER INCORPORATION,Asus Multi Store - Croma R City Mall - Ghatkopar West,"Croma R City Mall-Unit No G10, Ground Floor, R City Mall, Lal Bahadur Shastri Marg, Amrut Nagar, Ghatkopar West, Mumbai, Maharashtra 400086",19.1001547,72.9159923,India,IND,400086,Maharashtra,Mumbai City,https://www.asus.com/in/microsite/shop-near-me/,COMPANY WEBSITE,Asus Multi-Brand Store,website
IID000000002141568,ASUSTEK COMPUTER INCORPORATION,ASUS Multi Store - Croma Bhayander,"Rashesh Mall, Near Maxus Mall, Sri Vallabhacharyaji Marg Near New flyover Bridge, next to Venkatesh Hall, Bhayandar, Mumbai, Maharashtra 401101",19.2952877,72.8479832,India,IND,401101,Maharashtra,Mumbai City,https://www.asus.com/in/microsite/shop-near-me/,COMPANY WEBSITE,Asus Multi-Brand Store,website
IID000000002141568,ASUSTEK COMPUTER INCORPORATION,Asus Multi Store -Vijay Sales Tip Top Thane,"Hotel Tip Top Plaza Mulund Thane Checknaka, Lal Bahadur Shastri Rd, near Thane West, Thane West, Thane, Maharashtra 400060",19.1859312,72.95988140000001,India,IND,400060,Maharashtra,Mumbai City,https://www.asus.com/in/microsite/shop-near-me/,COMPANY WEBSITE,Asus Multi-Brand Store,website
IID000000002141568,ASUSTEK COMPUTER INCORPORATION,ASUS Multi Store - Top Ten Electronic,"shop no 8-a, Real Tech Park, Plot-39/2, Station Road, Near Center One, Sector 30A, Vashi, Mumbai, Maharashtra 400703",19.0661222,72.99893089999999,India,IND,400703,Maharashtra,Navi Mumbai,https://www.asus.com/in/microsite/shop-near-me/,COMPANY WEBSITE,Asus Multi-Brand Store,website
IID000000002141568,ASUSTEK COMPUTER INCORPORATION,	ASUS Multi Store -HARIOM COMPUTER,"Shop no.C 104, Gr.floor, Vashi Plaza, Sector 17, Vashi, Navi Mumbai, Maharashtra 400703",19.0696153,72.9984659,India,IND,400703,Maharashtra,Mumbai,https://www.asus.com/in/microsite/shop-near-me/,COMPANY WEBSITE,Asus Multi-Brand Store,website
IID000000002141568,ASUSTEK COMPUTER INCORPORATION,ASUS Multi Store -Reliance Digital (Maithili),"Maithili Sygnate, Next To Bsel Tech Park, Opp. Vashi Railway Station 400705",19.065698,72.99922,India,IND,400705,Maharashtra,Mumbai,https://www.asus.com/in/microsite/shop-near-me/,COMPANY WEBSITE,Asus Multi-Brand Store,website
IID000000002141568,ASUSTEK COMPUTER INCORPORATION,ASUS Multi Store - Arcee,"Chadda Crescent, Sector-17, Near Citi Bank, Vashi, Navi Mumbai-400703",19.0793547,72.9992013,India,IND,400703,Maharashtra,Navi Mumbai,https://www.asus.com/in/microsite/shop-near-me/,COMPANY WEBSITE,Asus Multi-Brand Store,website
IID000000002141568,ASUSTEK COMPUTER INCORPORATION,ASUS Multi Store - Arts And Memories ,"Shop 2/3/4, shrusti prime, opp to snehal hospital, Gokhale road naupada, thane west 400602",19.1871331,72.9707136,India,IND,400602,Maharashtra,Mumbai Suburban,https://www.asus.com/in/microsite/shop-near-me/,COMPANY WEBSITE,Asus Multi-Brand Store,website
IID000000002141568,ASUSTEK COMPUTER INCORPORATION,ASUS Multi Store - Computech,"Shivaji Path, opposite Punjab National Bank, Naik Wadi, Naupada, Thane West, Thane, Maharashtra 400602",19.1889221,72.9758145,India,IND,400602,Maharashtra,Mumbai Suburban,https://www.asus.com/in/microsite/shop-near-me/,COMPANY WEBSITE,Asus Multi-Brand Store,website
IID000000002141568,ASUSTEK COMPUTER INCORPORATION,Asus Multi Store -Croma - Seawoods Mall,"Croma - Seawoods Mall-1st Floor, Nexus, Seawoods Mall, Railway Station, near Seawoods, Sector 40, Seawoods, Navi Mumbai, Maharashtra 400706",19.0216295,73.0177503,India,IND,400706,Maharashtra,Mumbai City,https://www.asus.com/in/microsite/shop-near-me/,COMPANY WEBSITE,Asus Multi-Brand Store,website
IID000000002141568,ASUSTEK COMPUTER INCORPORATION,ASUS Multi Store - Reliance Digital (Viviana Mall),"Reliance Digital, Second Floor, 6 and 7, Viva City Mall, Near Cadbury Compound, Off, Eastern Express Hwy, next to Jupitor Hospital, Thane West, Mumbai, Maharashtra 400601",19.2087175,72.9715119,India,IND,400601,Maharashtra,Thane,https://www.asus.com/in/microsite/shop-near-me/,COMPANY WEBSITE,Asus Multi-Brand Store,website
IID000000002141568,ASUSTEK COMPUTER INCORPORATION,Asus Multi Store -Croma (Belapur),"Lords Building,Plot 35/35A Sec-15,Cbd Belapur 400614",19.0097666,73.0306499,India,IND,400614,Maharashtra,Mumbai City,https://www.asus.com/in/microsite/shop-near-me/,COMPANY WEBSITE,Asus Multi-Brand Store,website
IID000000002141568,ASUSTEK COMPUTER INCORPORATION,ASUS Multi Store -Reliance Digital (Orion Park),"Shop No. 4, Orion Business Park, Near Cine Wonder Mall, Ghodbunder Road 400604",19.22196043184619,72.9772715853195,India,IND,400604,Maharashtra,Thane,https://www.asus.com/in/microsite/shop-near-me/,COMPANY WEBSITE,Asus Multi-Brand Store,website
IID000000002141568,ASUSTEK COMPUTER INCORPORATION,ASUS Multi Store - Systematics,"M/003 Star Residency,Evershine City Vasai East",19.4166761,72.7983705,India,IND,401203,Maharashtra,Mumbai,https://www.asus.com/in/microsite/shop-near-me/,COMPANY WEBSITE,Asus Multi-Brand Store,website
IID000000002141568,ASUSTEK COMPUTER INCORPORATION,Asus Multi Store - Croma - Ghodbunder Road (Thane),"Croma - Ghodbunder Road (Thane) - House No 43 32/2H, Ground Floor Kapurbawdi, Junction, next to Bank of Baroda, Kailash Nagar, Thane, Maharashtra 400607",19.2216363,72.97813649999999,India,IND,400607,Maharashtra,Mumbai City,https://www.asus.com/in/microsite/shop-near-me/,COMPANY WEBSITE,Asus Multi-Brand Store,website
IID000000002141568,ASUSTEK COMPUTER INCORPORATION,ASUS Multi Store - VIJAY SALES (Thane Ghodbunder),"Sai Plaza, Opp-Wonder Mall, Ghodbunder Road-400602",19.2222559,72.9779544,India,IND,400602,Maharashtra,Thane,https://www.asus.com/in/microsite/shop-near-me/,COMPANY WEBSITE,Asus Multi-Brand Store,website
IID000000002141568,ASUSTEK COMPUTER INCORPORATION,Asus Multi Store -VIJAY SALES_THANE GHODBUNDER (W) 2,"VIJAY SALES_THANE GHODBUNDER (W) 2- Ghodbunder Rd, opposite Wonder Mall, Kapurbawdi, Thane West, Thane, Maharashtra 400602",19.2222685,72.9779491,India,IND,400602,Maharashtra,Mumbai City,https://www.asus.com/in/microsite/shop-near-me/,COMPANY WEBSITE,Asus Multi-Brand Store,website
IID000000002141568,ASUSTEK COMPUTER INCORPORATION,ASUS Multi Store - Reliance Digital (Times Square),"Ground & First Floor, Times Square, Sector 15, Cbd Belapur 400706",19.01191,73.035604,India,IND,400706,Maharashtra,Navi Mumbai,https://www.asus.com/in/microsite/shop-near-me/,COMPANY WEBSITE,Asus Multi-Brand Store,website
IID000000002141568,ASUSTEK COMPUTER INCORPORATION,Reliance Digital - Time Square,"Reliance Digital, Time Square, Ground & First Floor, Sector 15, CBD Belapur, Mumbai, Maharashtra 400706",19.011934,73.0357525,India,IND,400706,Maharashtra,Mumbai City,https://www.asus.com/in/microsite/shop-near-me/,COMPANY WEBSITE,Asus Multi-Brand Store,website
IID000000002141568,ASUSTEK COMPUTER INCORPORATION,Asus Multi Store - Reliance Digital Tania Horizon ,"Reliancedigital Retail Ltd., Tania Horizon, First floor, Near Axis Bank, Station Road, Nalasopara-west, Thane 401203",19.4201936,72.8136469,India,IND,401203,Maharashtra,Mumbai,https://www.asus.com/in/microsite/shop-near-me/,COMPANY WEBSITE,Asus Multi-Brand Store,website
IID000000002141568,ASUSTEK COMPUTER INCORPORATION,Croma Kharghar,"The Landmark Building, Next to hotel three star,near hiranadani plot no, 26A, Sector 7, Kharghar, Mumbai, Maharashtra 410210",19.0330266,73.0660541,India,IND,410210,Maharashtra,Navi Mumbai,https://www.asus.com/in/microsite/shop-near-me/,COMPANY WEBSITE,Asus Multi-Brand Store,website
IID000000002141568,ASUSTEK COMPUTER INCORPORATION,	ASUS Multi Store - 3S Technogies,"Shop No 10, Neelkhant Dharshan, Nr. Panvel Palce Hotel, Opp Orion Mall, Panvel, Navi Mumbai. 410206",18.9934013,73.1157078,India,IND,410206,Maharashtra,Navi Mumbai,https://www.asus.com/in/microsite/shop-near-me/,COMPANY WEBSITE,Asus Multi-Brand Store,website
IID000000002141568,ASUSTEK COMPUTER INCORPORATION,ASUS Multi Store - Akshar Digital,"Shop No 1 & 2, Sukapur, Near Balaji Symphony Panvel, opp. Vasant Vihar, Navi Mumbai, Maharashtra 410206",19.0006892,73.13542489999999,India,IND,410206,Maharashtra,Navi Mumbai,https://www.asus.com/in/microsite/shop-near-me/,COMPANY WEBSITE,Asus Multi-Brand Store,website
IID000000002141568,ASUSTEK COMPUTER INCORPORATION,Asus Multi Store - VIJAY SALES - DOMBIVILI,"VIJAY SALES - DOMBIVILI - Sports Complex, Bldg No D, Konark Arcade, Gharda Circle, near Pendhekar College, Dombivli East, Dombivli, Thane, Maharashtra 421204",19.2143117,73.1034775,India,IND,421204,Maharashtra,Mumbai City,https://www.asus.com/in/microsite/shop-near-me/,COMPANY WEBSITE,Asus Multi-Brand Store,website
IID000000002141568,ASUSTEK COMPUTER INCORPORATION,Vijay Sales_Dombivli,"Vijay Sales_Dombivli, Kalyan Rd, Azde Gaon, Tata Power Company Limited, Dombivli East, Dombivli, Maharashtra 421203",19.217701,73.1031958,India,IND,421203,Maharashtra,Mumbai City,https://www.asus.com/in/microsite/shop-near-me/,COMPANY WEBSITE,Asus Multi-Brand Store,website
IID000000002141568,ASUSTEK COMPUTER INCORPORATION,Asus Multi Store -Croma_Croma - Kalyan West Khadakpada,"Croma, Gurudev Darshan Building, Gaikar Pada, Near, Adharwadi Rd, Thane, Maharashtra 421301",19.2528948,73.1287767,India,IND,421301,Maharashtra,Mumbai City,https://www.asus.com/in/microsite/shop-near-me/,COMPANY WEBSITE,Asus Multi-Brand Store,website
IID000000002141568,ASUSTEK COMPUTER INCORPORATION,Asus Multi Store -VIJAY SALES - KALYAN (WEST),"VIJAY SALES - KALYAN (WEST) Sant Sawatamali Vegetable Mkt, West, opposite Bindu Tower, Rambaug, Kalyan, Thane, Maharashtra 421301",19.2417869,73.13845069999999,India,IND,421301,Maharashtra,Mumbai,https://www.asus.com/in/microsite/shop-near-me/,COMPANY WEBSITE,Asus Multi-Brand Store,website
IID000000002141568,ASUSTEK COMPUTER INCORPORATION,Asus Exclusive Store -Goodwill Computer,"Shop No 3, Ground floor,Laxmi Complex, Old Mumbai Pune Highway Chinchwad, Anand Nagar, Nearby Ranka Jeweller, Pune, Maharashtra 411019",18.6359527,73.7969919,India,IND,411019,Maharashtra,Pune,https://www.asus.com/in/microsite/shop-near-me/,COMPANY WEBSITE,Asus Exclusive Store,website
IID000000002141568,ASUSTEK COMPUTER INCORPORATION,Asus Exclusive Store -Pari Computers,"Shop No A/3, Queen Sabera,Next To Renbow Plazza,Shivar Chowk, Rahatane, Pimple Saudagar 411017",18.6103179,73.7889689,India,IND,411017,Maharashtra,Pune,https://www.asus.com/in/microsite/shop-near-me/,COMPANY WEBSITE,Asus Exclusive Store,website
IID000000002141568,ASUSTEK COMPUTER INCORPORATION,Asus Exclusive Store -Sairaj Techinfra Pvt Ltd,"Shop No 2, Shalimar Triumph, near Dutta Mandir, opp. Khalsa Dairy, Clover Park, Viman Nagar, Pune, Maharashtra 411014",18.5650556,73.91479749999999,India,IND,411014,Maharashtra,Pune,https://www.asus.com/in/microsite/shop-near-me/,COMPANY WEBSITE,Asus Exclusive Store,website
IID000000002141568,ASUSTEK COMPUTER INCORPORATION,"Asus Exclusive Store -Venkatesha Systems, Wakad","Unit no. S-67, Mall of the Millennium, behind Sayaji Hotel, Shankar Kalat Nagar, Wakad, Pimpri-Chinchwad, Pune, Maharashtra 411057",18.6006206,73.7565834,India,IND,411057,Maharashtra,Pune,https://www.asus.com/in/microsite/shop-near-me/,COMPANY WEBSITE,Asus Exclusive Store,website
IID000000002141568,ASUSTEK COMPUTER INCORPORATION,Asus Exclusive Store -Pari Computers Seasons Mall,"Seasons Mall, Magarpatta, Hadapsar, Pune, Maharashtra 411013",18.5196257,73.9312848,India,IND,411013,Maharashtra,Pune,https://www.asus.com/in/microsite/shop-near-me/,COMPANY WEBSITE,Asus Exclusive Store,website
IID000000002141568,ASUSTEK COMPUTER INCORPORATION,Asus Exclusive Store -Real Computers,"1549,Sadashiv Peth,Tilak Road,Near Maharashtra Madal,Pune-411030 411030",18.510216,73.8467105,India,IND,411030,Maharashtra,Pune,https://www.asus.com/in/microsite/shop-near-me/,COMPANY WEBSITE,Asus Exclusive Store,website
IID000000002141568,ASUSTEK COMPUTER INCORPORATION,Asus Exclusive Store -Leecomp Pvt Ltd,"shop No.1 & 2 Ground Floor, Shivnandan Co-op Housing Society, Lokmanya Bal Gangadhar Tilak Rd, Sadashiv Peth, Pune, Maharashtra 411030",18.509411,73.847837,India,IND,411030,Maharashtra,Pune,https://www.asus.com/in/microsite/shop-near-me/,COMPANY WEBSITE,Asus Exclusive Store,website
IID000000002141568,ASUSTEK COMPUTER INCORPORATION,"Asus Exclusive Store -Karan Solutions, Wanowrie,","Asus Exclusive Store – Karan Solutions, Shop No 36, Parmar Park Society, Jambulkar Chowk, Phase 2, Nearby Janaseva Sahakari Bank, Wanowrie, pune, maharashtra - 411040",18.4938854,73.89977790000002,India,IND,411040,Maharashtra,Pune,https://www.asus.com/in/microsite/shop-near-me/,COMPANY WEBSITE,Asus Exclusive Store,website
IID000000002141568,ASUSTEK COMPUTER INCORPORATION,Asus Exclusive Store -Inspire Computers,"Shop No G4, Mauli Sankul, Savedi Road, near Zopdi Canteen, Ahmednagar, Maharashtra 414003",19.1149101,74.7302958,India,IND,413201,Maharashtra,Ahmednagar,https://www.asus.com/in/microsite/shop-near-me/,COMPANY WEBSITE,Asus Exclusive Store,website
IID000000002141568,ASUSTEK COMPUTER INCORPORATION,ASUS Exclusive Store -5 Computers Kammanhalli,"314, 7Thmain, 80 Feet Rd Hrbr Layout, Near Om Shakti Temple, Next to Nilgris Supermarket, Kalyanagar 560043",13.0206268,77.6478852,India,IND,560043,Karnataka,Bangalore,https://www.asus.com/in/microsite/shop-near-me/,COMPANY WEBSITE,Asus Exclusive Store,website
IID000000002141568,ASUSTEK COMPUTER INCORPORATION,Asus Exclusive Store-Laptop Store,"No.11, N. Annaiah Reddy Building,Old Airport Road,Marathahalli, Bangalore 560037.",12.9566294,77.70468230000002,India,IND,560037,Karnataka,Bangalore,https://www.asus.com/in/microsite/shop-near-me/,COMPANY WEBSITE,Asus Exclusive Store,website
IID000000002141568,ASUSTEK COMPUTER INCORPORATION,Asus Exclusive Store -5 Computers,"No. 03, 100 feet road, Opp to Barbeque nation, HAL 2nd stage, Indiranagar, Bangalore-560008.",12.9673053,77.6433089,India,IND,560008,Karnataka,Bangalore,https://www.asus.com/in/microsite/shop-near-me/,COMPANY WEBSITE,Asus Exclusive Store,website
IID000000002141568,ASUSTEK COMPUTER INCORPORATION,ASUS Exclusive Store - 1 Amogha Computers,"62/1, 3rd main, 18th cross Margosa Road, near bus depot, Malleshwaram, Bengaluru, Karnataka 560055",13.0087257,77.5666406,India,IND,560055,Karnataka,Bengaluru,https://www.asus.com/in/microsite/shop-near-me/,COMPANY WEBSITE,Asus Exclusive Store,website
IID000000002141568,ASUSTEK COMPUTER INCORPORATION,Asus Exclusive Store -Mega IT Store,"Shop No 906, GNR Plaza, 80 Feet Road, 6th Block, Koramangala, opposite Mega IT Store, Bengaluru, Karnataka 560095",12.9369154,77.6407258,India,IND,560095,Karnataka,Bangalore,https://www.asus.com/in/microsite/shop-near-me/,COMPANY WEBSITE,Asus Exclusive Store,website
IID000000002141568,ASUSTEK COMPUTER INCORPORATION,ASUS Exclusive Store -Techberry IT Solution,"No.15, 27th Main road, Phase 3, 1st sector, HSR Layout, Bengaluru, 560102",12.920787,77.6514441,India,IND,560102,Karnataka,Bangalore,https://www.asus.com/in/microsite/shop-near-me/,COMPANY WEBSITE,Asus Exclusive Store,website
IID000000002141568,ASUSTEK COMPUTER INCORPORATION,Asus Exclusive store -TechPoint Retail Pvt Ltd,"No 772/2, 16th Main Road, MCHS Colony, Opp Laddos, BTM 2nd Stage, Bangalore",12.9136757,77.6100134,India,IND,560076,Karnataka,Bangalore,https://www.asus.com/in/microsite/shop-near-me/,COMPANY WEBSITE,Asus Exclusive Store,website
IID000000002141568,ASUSTEK COMPUTER INCORPORATION,ROG Exclusive Store -Amogha Computer Needs,"197/F-6/1, 27th Cross Rd, opp. to Temple Silks & Sarees, Jayanagar 3rd Block East, Jayanagar, Bengaluru, Karnataka 560011",12.930862328792305,77.58279055871651,India,IND,560011,Karnataka,Bangalore,https://www.asus.com/in/microsite/shop-near-me/,COMPANY WEBSITE,Asus Exclusive Store,website
IID000000002141568,ASUSTEK COMPUTER INCORPORATION,Asus Exclusive Store - 1 Amogha Computers,"66, 21st Main Rd, opp. to ICICI Bank, near BDA Complex, Siddanna Layout, Banashankari Stage II, Banashankari, Bengaluru, Karnataka 560070",12.9260952,77.56449049999999,India,IND,560002,Karnataka,Bangalore,https://www.asus.com/in/microsite/shop-near-me/,COMPANY WEBSITE,Asus Exclusive Store,website
IID000000002141568,ASUSTEK COMPUTER INCORPORATION,Asus Exclusive Store -Jinshasan Info System,"Shop No 4, Plot No 349/357, Ground Flr, Shree Ganesh Bhuvan, Lamington Road, Grant Road East, Opposite Police Station, Mumbai, Maharashtra 400007",18.959018,72.8177133,India,IND,400007,Maharashtra,Mumbai City,https://www.asus.com/in/microsite/shop-near-me/,COMPANY WEBSITE,Asus Exclusive Store,website
IID000000002141568,ASUSTEK COMPUTER INCORPORATION,Asus Exclusive Store -Maxtech Fort,"27 KERMANI BLDG , SHOP NO 3 , GROUND FLOOR , SIR P M ROAD ,  FORT , MUMBAI 400001",18.9362016,72.8321759,India,IND,400001,Maharashtra,Mumbai City,https://www.asus.com/in/microsite/shop-near-me/,COMPANY WEBSITE,Asus Exclusive Store,website
IID000000002141568,ASUSTEK COMPUTER INCORPORATION,Asus Exclusive Store - I.T World,"Shop No 2, Rizvi Park, Swami Vivekananda Rd, Rizvi Nagar, Khira Nagar, Santacruz West, Mumbai, Maharashtra 400054",19.0893516,72.8377008,India,IND,400054,Maharashtra,Mumbai City,https://www.asus.com/in/microsite/shop-near-me/,COMPANY WEBSITE,Asus Exclusive Store,website
IID000000002141568,ASUSTEK COMPUTER INCORPORATION,"Asus Exclusive Store -Icons, Andheri West","Shop No 12, Kuber Apartment, New Link Rd, opp. Laxmi Industrial, Veera Desai Industrial Estate, Andheri West, Mumbai, Maharashtra",19.13547,72.8297614,India,IND,400053,Maharashtra,Mumbai City,https://www.asus.com/in/microsite/shop-near-me/,COMPANY WEBSITE,Asus Exclusive Store,website
IID000000002141568,ASUSTEK COMPUTER INCORPORATION,Asus Exclusive Store -Mccan Infosys - Select Store - Vashi,"Vashi plaza, D-58, Near HDFC Bank, Liberty Housing Society, Sector 17, Vashi, Navi Mumbai, Maharashtra 400703",19.15359445614081,72.85019154399414,India,IND,400703,Maharashtra,Mumbai City,https://www.asus.com/in/microsite/shop-near-me/,COMPANY WEBSITE,Asus Exclusive Store,website
IID000000002141568,ASUSTEK COMPUTER INCORPORATION,ASUS Exclusive Store -IT Hub,"Shop No. 9 Ground Floor, Anjana CHS Ltd, Beside HDFC Bank, S V Road, Borivali West, Mumbai, Maharashtra 400092",19.215997478850724,72.85337109999999,India,IND,400092,Maharashtra,Mumbai,https://www.asus.com/in/microsite/shop-near-me/,COMPANY WEBSITE,Asus Exclusive Store,website
IID000000002141568,ASUSTEK COMPUTER INCORPORATION,Asus Exclusive Store -Techquest Business Solutions,"Shop No 80, Ground Floor, Heera Panna Shopping Mall, Hiranandani Gardens, Opp Jal Vayu Vihar Powai 400076",19.1239285,72.9094407,India,IND,400076,Maharashtra,Mumbai,https://www.asus.com/in/microsite/shop-near-me/,COMPANY WEBSITE,Asus Exclusive Store,website
IID000000002141568,ASUSTEK COMPUTER INCORPORATION,Asus Exclusive Store -Micron Computer,"Shop No 13, Rajesh Building, Maxus Mall Road, Padmavati Nagar, Beside Wowfills Restaurant, Bhayandar West, Maharashtra 401101",19.2958143,72.8480774,India,IND,401101,Maharashtra,Mumbai,https://www.asus.com/in/microsite/shop-near-me/,COMPANY WEBSITE,Asus Exclusive Store,website
IID000000002141568,ASUSTEK COMPUTER INCORPORATION,"Asus Exclusive Store -Icons, Vashi","Shop no.-14 A Wing, Vashi Plaza, Sector 17, Navi Mumbai, Maharashtra 400703",19.0692007,72.99757009999999,India,IND,400703,Maharashtra,Navi Mumbai,https://www.asus.com/in/microsite/shop-near-me/,COMPANY WEBSITE,Asus Exclusive Store,website
IID000000002141568,ASUSTEK COMPUTER INCORPORATION,Asus Exclusive Store - Kings Group -Vasai,"Shop No 1 Parvati Theater, Vasai Station Rd, opposite Golden park, Vasai-Virar, Maharashtra 401202",19.38108,72.82795899999999,India,IND,401202,Maharashtra,Mumbai,https://www.asus.com/in/microsite/shop-near-me/,COMPANY WEBSITE,Asus Exclusive Store,website
IID000000002141568,ASUSTEK COMPUTER INCORPORATION,"Asus Exclusive Store -Icons, Airoli","Shop No:4, Manas Cooperative Housing Society, Sector 6, Airoli 400708",19.1478291,72.9977713,India,IND,400708,Maharashtra,Mumbai,https://www.asus.com/in/microsite/shop-near-me/,COMPANY WEBSITE,Asus Exclusive Store,website
IID000000002141568,ASUSTEK COMPUTER INCORPORATION,"Asus Exclusive Store -Icons, Kharghar","RAVECHI HEIGHTS, Shop No. 7,Plot No. 25, CHS Ltd, Sector 7, Kharghar, Navi Mumbai, Maharashtra 410210",19.0346367,73.06635299999999,India,IND,410210,Maharashtra,Thane,https://www.asus.com/in/microsite/shop-near-me/,COMPANY WEBSITE,Asus Exclusive Store,website
IID000000002141568,ASUSTEK COMPUTER INCORPORATION,"Asus Exclusive Store -Icons, Dombivali","Tai Pingale Chowk, Shop No.2 Rakhi Apartment, Tilak Road, Dombivli East, Maharashtra 421201",19.218902,73.0907809,India,IND,421201,Maharashtra,Mumbai City,https://www.asus.com/in/microsite/shop-near-me/,COMPANY WEBSITE,Asus Exclusive Store,website
IID000000002141568,ASUSTEK COMPUTER INCORPORATION,Asus Multi Store -Croma Chinchwad,"Aishwaryam One, Akurdi Chowk, near Khandowa Mandir, Kalbhor Nagar, MIDC, Chinchwad, Pune, Pimpri-Chinchwad, Maharashtra 411019",18.6592838,73.7779615,India,IND,411019,Maharashtra,Pune,https://www.asus.com/in/microsite/shop-near-me/,COMPANY WEBSITE,Asus Multi-Brand Store,website
IID000000002141568,ASUSTEK COMPUTER INCORPORATION,Reliance Digital - Akurdi - Pune,Akurdi PCMC,18.6512822,73.7856723,India,IND,411035,Maharashtra,Pune,https://www.asus.com/in/microsite/shop-near-me/,COMPANY WEBSITE,Asus Multi-Brand Store,website
IID000000002141568,ASUSTEK COMPUTER INCORPORATION,ASUS Multi Store - Laptech Solutions Pvt. Ltd. ,"Shop No 3-4, Laxmi Complex, Pune -Mumbai Highway, Chinchwad, Pune-411019",18.6574421,73.800734,India,IND,411019,Maharashtra,Pune,https://www.asus.com/in/microsite/shop-near-me/,COMPANY WEBSITE,Asus Multi-Brand Store,website
IID000000002141568,ASUSTEK COMPUTER INCORPORATION,Asus Multi Store - DCC Retails,"Laxmi Complex, Anand Nagar, Pimpri- Chinchwad, Chinchwad , Pune, Maharashtra 411019",18.635954,73.7970438,India,IND,411019,Maharashtra,Pune,https://www.asus.com/in/microsite/shop-near-me/,COMPANY WEBSITE,Asus Multi-Brand Store,website
IID000000002141568,ASUSTEK COMPUTER INCORPORATION,Asus Multi Store -Vijay Sales - Chinchwad,"CB/2/001, Empire Estate Near Ranka Jewellers Old Mumbai Road Pimpri Colony Pimpri-Chinchwad, Pune, Maharashtra 411019",18.6335487,73.798897,India,IND,411019,Maharashtra,Pune,https://www.asus.com/in/microsite/shop-near-me/,COMPANY WEBSITE,Asus Multi-Brand Store,website
IID000000002141568,ASUSTEK COMPUTER INCORPORATION,Asus Multistore - Croma Pimpri ,"Croma, Shubhan Galleria, Shop no.2, Ground Floor, Survey no.210/A CST No.4800 & 4801, 209 Near Pimpri Bridge, Opp Judson High School, Next to Finolx Chowk, Pimpri, Pune, Maharashtra 411018",18.625417,73.8017965,India,IND,411018,Maharashtra,Pune,https://www.asus.com/in/microsite/shop-near-me/,COMPANY WEBSITE,Asus Multi-Brand Store,website
IID000000002141568,ASUSTEK COMPUTER INCORPORATION,Asus Multistore - Reliance Digital Hinjewadi ,"Sparsh Plaza Hinjewadi road, next to Marriot Courtyard, opposite HP Petrol pump, Hinjewadi, Pimpri-Chinchwad, Maharashtra 411057",18.5912277,73.7475218,India,IND,411057,Maharashtra,Pune,https://www.asus.com/in/microsite/shop-near-me/,COMPANY WEBSITE,Asus Multi-Brand Store,website
IID000000002141568,ASUSTEK COMPUTER INCORPORATION,Asus Multi Store -Vijay Sales - Hinjewadi,"Shop No 4, Ground Floor, White Square, Wakad Rd, Hinjawadi Village, Hinjawadi, Pune, Pimpri-Chinchwad, Maharashtra 411057",18.5909679,73.7531228,India,IND,411057,Maharashtra,Pune,https://www.asus.com/in/microsite/shop-near-me/,COMPANY WEBSITE,Asus Multi-Brand Store,website
IID000000002141568,ASUSTEK COMPUTER INCORPORATION,Asus Multistore -Vijay Sales Bhosari,"24/25/26, Bhosari Industrial Area, MIDC, Bhosari, Pune, Maharashtra",18.6337888,73.82847439999999,India,IND,411026,Maharashtra,Pune,https://www.asus.com/in/microsite/shop-near-me/,COMPANY WEBSITE,Asus Multi-Brand Store,website
IID000000002141568,ASUSTEK COMPUTER INCORPORATION,Asus Multi Store -Vijay sales Rahatni,"Jagtap Dairy, Sr. no.5/6, Shop No.16/17/18/19, Divya Heights Aundh Annexe, Rahatani Rd, Pimple Saudagar, Pune, Maharashtra 411017",18.6014135,73.7944869,India,IND,411017,Maharashtra,Pune,https://www.asus.com/in/microsite/shop-near-me/,COMPANY WEBSITE,Asus Multi-Brand Store,website
IID000000002141568,ASUSTEK COMPUTER INCORPORATION,Asus Multi Store -Croma Baner,"SN 112 1/2/1 & 112/1, Pride Gateway, No 1 & 2, Baner, Pune, Maharashtra 411045",18.5657592,73.7713627,India,IND,411045,Maharashtra,Pune,https://www.asus.com/in/microsite/shop-near-me/,COMPANY WEBSITE,Asus Multi-Brand Store,website
IID000000002141568,ASUSTEK COMPUTER INCORPORATION,ASUS Multi Store - Amico Agancy,"Survey No 63 Pune-Mumbai Road, Near Harris Bridge Dapodi, Pune, Maharashtra 411012",18.580678,73.8286733,India,IND,411012,Maharashtra,Pune,https://www.asus.com/in/microsite/shop-near-me/,COMPANY WEBSITE,Asus Multi-Brand Store,website
IID000000002141568,ASUSTEK COMPUTER INCORPORATION,Asus Multistore -Vijay Sales Baner,"Pride Purple Accord,  next to hotel mahabaleshwar, opp symantic building baner",18.5551587,73.79731559999999,India,IND,411045,Maharashtra,Pune,https://www.asus.com/in/microsite/shop-near-me/,COMPANY WEBSITE,Asus Multi-Brand Store,website
IID000000002141568,ASUSTEK COMPUTER INCORPORATION,Asus Multistore -Vijay Sales Kothrud,"KOTHRUD, Manke Affluence, Paud Road, opp. Krushna Hospital, Prashant Society, Rambaug Colony, Kothrud, Pune, Maharashtra",18.5097269,73.8128077,India,IND,411038,Maharashtra,Pune,https://www.asus.com/in/microsite/shop-near-me/,COMPANY WEBSITE,Asus Multi-Brand Store,website
IID000000002141568,ASUSTEK COMPUTER INCORPORATION,ASUS Multi Store - Sujata Computers Pvt Ltd,"Raj,Dashbhuja Estate ,Karve Road,Near Dashbhuja Ganpati Mandir,Pune411004",18.515729,73.8348683,India,IND,411004,Maharashtra,Pune,https://www.asus.com/in/microsite/shop-near-me/,COMPANY WEBSITE,Asus Multi-Brand Store,website
IID000000002141568,ASUSTEK COMPUTER INCORPORATION,Asus Multistore -Croma Kothrud,"Giridhar Avenue, Ground Flr S.No.20/2 Plot No.R1, CTS No.677, Kothrud, Pune, Maharashtra 411038, Pune, Maharashtra 411038",18.4986959,73.8217876,India,IND,411038,Maharashtra,Pune,https://www.asus.com/in/microsite/shop-near-me/,COMPANY WEBSITE,Asus Multi-Brand Store,website
IID000000002141568,ASUSTEK COMPUTER INCORPORATION,ASUS Multi Store - Mehta Infotech,"166/177 Kasba Peth,Dhanshree Apartment, Opposite Ganpati Mandir, , Pune - 411011",18.5234814,73.8638613,India,IND,411011,Maharashtra,Pune,https://www.asus.com/in/microsite/shop-near-me/,COMPANY WEBSITE,Asus Multi-Brand Store,website
IID000000002141568,ASUSTEK COMPUTER INCORPORATION,Asus Multi Store -Croma Phoniex Mall Pune,"Phoniex Market city mall, Viman Nagar, Pune Maharashtra",18.5622766,73.9164991,India,IND,411014,Maharashtra,Pune,https://www.asus.com/in/microsite/shop-near-me/,COMPANY WEBSITE,Asus Multi-Brand Store,website
IID000000002141568,ASUSTEK COMPUTER INCORPORATION,Asus Multistore -Reliance Digital Phoniex Pune,"shop no. 33/34/35 1st floor, Phoniex Market city , Viman Nagar Pune",18.5616548,73.91667749999999,India,IND,411014,Maharashtra,Pune,https://www.asus.com/in/microsite/shop-near-me/,COMPANY WEBSITE,Asus Multi-Brand Store,website
IID000000002141568,ASUSTEK COMPUTER INCORPORATION,ASUS Multi Store - Kida Retail (P) Ltd,"New Nirmal Apartment, Dhole Patil Rd, Near Akshay Complex, Sangamvadi, Pune, 411001",18.5296029,73.8760153,India,IND,411001,Maharashtra,Pune,https://www.asus.com/in/microsite/shop-near-me/,COMPANY WEBSITE,Asus Multi-Brand Store,website
IID000000002141568,ASUSTEK COMPUTER INCORPORATION,ASUS Multi Store -Notebook Hub (Sairaj Techinfra),"Kushal Shirke Building, Opp. Maharashtra Mandal, Tilak Road 411030",18.509246,73.84786,India,IND,411030,Maharashtra,Pune,https://www.asus.com/in/microsite/shop-near-me/,COMPANY WEBSITE,Asus Multi-Brand Store,website
IID000000002141568,ASUSTEK COMPUTER INCORPORATION,ASUS Multistore -DCC Retails,"1577, TILAK ROAD, SADASHIV PETHOPP MAHARASHTRA MANDAL, PUNE - 411030",18.50921,73.84800810000002,India,IND,411030,Maharashtra,Pune,https://www.asus.com/in/microsite/shop-near-me/,COMPANY WEBSITE,Asus Multi-Brand Store,website
IID000000002141568,ASUSTEK COMPUTER INCORPORATION,ASUS Multi Store -VIJAY SALES - Pune Station,"Pmt Building, Sadhu Vaswani Chowck, Near Baveria Motors 411001",18.527062,73.876775,India,IND,411001,Maharashtra,Pune,https://www.asus.com/in/microsite/shop-near-me/,COMPANY WEBSITE,Asus Multi-Brand Store,website
IID000000002141568,ASUSTEK COMPUTER INCORPORATION,Asus Multi Store - Croma JVA Mall,"Kopre Gaothan, Plot No B, JVA Mall, New, Hingane Bk Maharshi, opposite Kakade City, Karve Nagar, Pune, Maharashtra 411052",18.48514,73.8113784,India,IND,411052,Maharashtra,Pune,https://www.asus.com/in/microsite/shop-near-me/,COMPANY WEBSITE,Asus Multi-Brand Store,website
IID000000002141568,ASUSTEK COMPUTER INCORPORATION,Asus Multistore -Vijay Sales Tilak Road,"Plot No. CRT, 2008-A, Lokmanya Bal Gangadhar Tilak Rd, Sadashiv Peth, Pune, Maharashtra 411030",18.5067011,73.8521791,India,IND,411030,Maharashtra,Pune,https://www.asus.com/in/microsite/shop-near-me/,COMPANY WEBSITE,Asus Multi-Brand Store,website
IID000000002141568,ASUSTEK COMPUTER INCORPORATION,ASUS Multi Store - Parmar Distributor,"1211/B,Shukrwar Peth,Parmar House,Pune-411002",18.512489,73.8611812,India,IND,411002,Maharashtra,Pune,https://www.asus.com/in/microsite/shop-near-me/,COMPANY WEBSITE,Asus Multi-Brand Store,website
IID000000002141568,ASUSTEK COMPUTER INCORPORATION,Asus Multistore -Vijay Sales Nagar Road,"Plot No. 9, Survey No. 48/2, Prabhakar Hights, Below Chate Classes, Near Rupee Bank, Nagar Road, Chandan Nagar. Kharadi, Pune, Maharashtra",18.5628168,73.9317743,India,IND,411014,Maharashtra,Pune,https://www.asus.com/in/microsite/shop-near-me/,COMPANY WEBSITE,Asus Multi-Brand Store,website
IID000000002141568,ASUSTEK COMPUTER INCORPORATION,ASUS Multi Store - Megabyte Systems,"Shop No.4-5, Building D, New Airport Road, Opp Hdfc Bank, Lunkad Garden, Viman Nagar, Pune - 411014",18.5574028,73.9283005,India,IND,411014,Maharashtra,Pune,https://www.asus.com/in/microsite/shop-near-me/,COMPANY WEBSITE,Asus Multi-Brand Store,website
IID000000002141568,ASUSTEK COMPUTER INCORPORATION,Asus Multi Store -Croma Sinhgad road,"Ground Floor, Monte Rosa, Sinhgad Rd, Hingne Khurd, Pune, Maharashtra 411051",18.4815298,73.82541069999999,India,IND,411051,Maharashtra,Pune,https://www.asus.com/in/microsite/shop-near-me/,COMPANY WEBSITE,Asus Multi-Brand Store,website
IID000000002141568,ASUSTEK COMPUTER INCORPORATION,Asus Multi Store -Vijay sales Satara road,"Jai Tirth Society, Pune satara road, opp sharada arcade, padmaavati,Pune,Maharashtra",18.4794641,73.8567552,India,IND,411009,Maharashtra,Pune,https://www.asus.com/in/microsite/shop-near-me/,COMPANY WEBSITE,Asus Multi-Brand Store,website
IID000000002141568,ASUSTEK COMPUTER INCORPORATION,ASUS Multi Store - Stech Computer,"45/2,Industrial Estate,F-14, Shankar Shethe Road, Near Dhobi Gath Maidan,Opp Meera Hospital,Pune-411037",18.4807627,73.8724301,India,IND,411037,Maharashtra,Pune,https://www.asus.com/in/microsite/shop-near-me/,COMPANY WEBSITE,Asus Multi-Brand Store,website
IID000000002141568,ASUSTEK COMPUTER INCORPORATION,Asus Multistore -Vijay Sales Dhankawadi,"Atharva Feryez Plaza, opposite Shankar Maharaj Math, Shridharnagar, Vivek Nagar, Dhankawadi, Pune, Maharashtra 411043",18.4702232,73.8568275,India,IND,411043,Maharashtra,Pune,https://www.asus.com/in/microsite/shop-near-me/,COMPANY WEBSITE,Asus Multi-Brand Store,website
IID000000002141568,ASUSTEK COMPUTER INCORPORATION,Asus Multi store -Reliance Digital - Seasons Mall,"Seasons mall, 2nd floor, Magarpatta, Hadapsar, Pune 411028",18.5195291,73.9311555,India,IND,411028,Maharashtra,Pune,https://www.asus.com/in/microsite/shop-near-me/,COMPANY WEBSITE,Asus Multi-Brand Store,website
IID000000002141568,ASUSTEK COMPUTER INCORPORATION,Asus Multistore - Croma Seasons mall,"21, Magarpatta Police Station Rd, Magarpatta, Hadapsar, Pune, Maharashtra 411028",18.519129,73.93197239999999,India,IND,411028,Maharashtra,Pune,https://www.asus.com/in/microsite/shop-near-me/,COMPANY WEBSITE,Asus Multi-Brand Store,website
IID000000002141568,ASUSTEK COMPUTER INCORPORATION,ASUS Multi Store - Multi Laptops,"Shop No 5,Meadows Green Valley, In Opp Lane To Kedari Petrol Pump, Wanworie, Wanowrie, Pune - 411040",18.492095,73.9001776,India,IND,411040,Maharashtra,Pune,https://www.asus.com/in/microsite/shop-near-me/,COMPANY WEBSITE,Asus Multi-Brand Store,website
IID000000002141568,ASUSTEK COMPUTER INCORPORATION,Softhrd Network,"SHOP NO - 3 NO 32/1 2 FLOOR SANTKRUPA BUILDING VETAL BUVA CHOWK, Narhe, Pune, Maharashtra 411041",18.4459277,73.8288944,India,IND,411041,Maharashtra,Pune,https://www.asus.com/in/microsite/shop-near-me/,COMPANY WEBSITE,Asus Multi-Brand Store,website
IID000000002141568,ASUSTEK COMPUTER INCORPORATION,Asus Multi Store -Vijay Sales Hadapsar,"Shop no. 52, Sr. no, The Capital, 153/A, Solapur Rd, near Mega Center, Magarpatta, Annexe, Pune, Maharashtra 411028",18.50326,73.9252228,India,IND,411028,Maharashtra,Pune,https://www.asus.com/in/microsite/shop-near-me/,COMPANY WEBSITE,Asus Multi-Brand Store,website
IID000000002141568,ASUSTEK COMPUTER INCORPORATION,Asus Multistore -Reliance Digital Bagirathi Squar,"Sy No 84/2D, Shop No 3 & 4, Ground Floor, Pune Satara Road, Katraj Chowk, Katraj, Pune, Maharashtra 411046",18.4490799,73.85792839999999,India,IND,411046,Maharashtra,Pune,https://www.asus.com/in/microsite/shop-near-me/,COMPANY WEBSITE,Asus Multi-Brand Store,website
IID000000002141568,ASUSTEK COMPUTER INCORPORATION,Asus Exclusive Store -SV Computers n Gadgets,"Opposite Arogya pharmacy & VIP residency, Korlagunta Junction, Tirumala Bypass Road, Tirupati -517501",13.6370125,79.42762499999999,India,IND,517501,Andhra Pradesh,Tirupati,https://www.asus.com/in/microsite/shop-near-me/,COMPANY WEBSITE,Asus Exclusive Store,website
IID000000002141568,ASUSTEK COMPUTER INCORPORATION,ASUS Multi Store -  Dass Computers,"No.318,Nithya Complex ,Chitoor Bus Stop Opposite, Katpadi ,Vellore-7",12.9566635,79.1209829,India,IND,632006,Tamil Nadu,Vellore,https://www.asus.com/in/microsite/shop-near-me/,COMPANY WEBSITE,Asus Multi-Brand Store,website
IID000000002141568,ASUSTEK COMPUTER INCORPORATION,ASUS Multi Store - Darling Digital World,"No 18/1, Officers Line- Anna Salai, Vellore Ho 632001",12.8954355,79.149209,India,IND,632001,Tamil Nadu,Vellore,https://www.asus.com/in/microsite/shop-near-me/,COMPANY WEBSITE,Asus Multi-Brand Store,website
IID000000002141568,ASUSTEK COMPUTER INCORPORATION,ASUS Multi Store - Shri Ramkrishna Computers,"Shop No 24 Nagar Parishad Complex, Main Road, Latur, Subhash Chowk, Opposite Regal Cinema Subhash Chowk, Latur - 413512",18.435351,76.606611,India,IND,413512,Maharashtra,Latur,https://www.asus.com/in/microsite/shop-near-me/,COMPANY WEBSITE,Asus Multi-Brand Store,website
IID000000002141568,ASUSTEK COMPUTER INCORPORATION,Asus Multi Store -Reliance Digital Latur,"CTS No 9906, Sabde Tower, S No 27, Gr & 1st Flr, Ausa Rd, beside AXIS Bank, Khardekar, Latur, Maharashtra 413531",18.3903027,76.5609089,India,IND,413531,Maharashtra,Pune,https://www.asus.com/in/microsite/shop-near-me/,COMPANY WEBSITE,Asus Multi-Brand Store,website
IID000000002141568,ASUSTEK COMPUTER INCORPORATION,ASUS Multi Store - Rudraj Enterprises,"Shop No.6,Patil Plaza,Iti Road,Below Andhra Bank,Near Hotel Taj Patil,Nanded-431602",19.1861284,77.1715228,India,IND,431602,Maharashtra,Nanded,https://www.asus.com/in/microsite/shop-near-me/,COMPANY WEBSITE,Asus Multi-Brand Store,website
IID000000002141568,ASUSTEK COMPUTER INCORPORATION,Asus Exclusive Store -Cyber Peripheral Pvt Ltd,"Shop No 103, Nandi Stop, Ausa Road, nearby Nirmal Heights Complex, Narayan Nagar, Latur, Maharashtra 413512",18.3922083,76.5619268,India,IND,413512,Maharashtra,Latur,https://www.asus.com/in/microsite/shop-near-me/,COMPANY WEBSITE,Asus Exclusive Store,website
IID000000002141568,ASUSTEK COMPUTER INCORPORATION,ASUS EXCLUSIVE STORE - Cyber Perpherals,"Shop no 101, Nirmal heights, Nandi stop, Ausa Rd, Narayan Nagar, Latur, Maharashtra 413512",18.3920672,76.5620534,India,IND,413512,Maharashtra,Latur,https://www.asus.com/in/microsite/shop-near-me/,COMPANY WEBSITE,Asus Exclusive Store,website
IID000000002141568,ASUSTEK COMPUTER INCORPORATION,ASUS Multi Store -  Shivam Infotech,"A/6 Kilchand Shopping Center,Nr. Kohinoor Cinema,Station Road, Patan - 384265",23.8515892,72.1270983,India,IND,384265,Gujarat,Patan,https://www.asus.com/in/microsite/shop-near-me/,COMPANY WEBSITE,Asus Multi-Brand Store,website
IID000000002141568,ASUSTEK COMPUTER INCORPORATION,The Laptop shopee,"No : AB115,Shanthi colony, 4th avenue, Anna nagar, Chennai 600040.",13.0836388,80.21609699999999,India,IND,600040,Tamil Nadu,Chennai,https://www.asus.com/in/microsite/shop-near-me/,COMPANY WEBSITE,Asus Multi-Brand Store,website
IID000000002141568,ASUSTEK COMPUTER INCORPORATION,Asus Multi Store - Reliance Digital (Ormes road),"Reliance digital Retail Ltd., 12 A, 24 & 24A, Second Cross Street, Ormes Road, Kilpauk, Chennai 600010, Tamil Nadu, 600010",13.0816249,80.2450393,India,IND,600010,Tamil Nadu,Chennai,https://www.asus.com/in/microsite/shop-near-me/,COMPANY WEBSITE,Asus Multi-Brand Store,website
IID000000002141568,ASUSTEK COMPUTER INCORPORATION,ASUS Multi Store -  Gbs Systems & Services,"1070-A, 1St Floor, Munuswamy Salai Opp To Bata Showroom), K. K. Nagar, Tamil Nadu",13.0410254,80.2000596,India,IND,600078,Tamil Nadu,Chennai,https://www.asus.com/in/microsite/shop-near-me/,COMPANY WEBSITE,Asus Multi-Brand Store,website
IID000000002141568,ASUSTEK COMPUTER INCORPORATION,ASUS Multi Store -  Acme Business Solution,"Shop C-2, G Floor, Kaj Plaza,New17/7, Narasingapuram St,Mount Roadchennai",13.0689208,80.2671114,India,IND,600002,Tamil Nadu,Chennai,https://www.asus.com/in/microsite/shop-near-me/,COMPANY WEBSITE,Asus Multi-Brand Store,website
IID000000002141568,ASUSTEK COMPUTER INCORPORATION,Asus Multi Store -Pentagon Computer,"6 ponidhayam complex, 73, sanctamaria, chockkalinga nagar, bypass road, madurai-625016, cell 9363394520",13.0318336,80.1964032,India,IND,625016,Tamil Nadu,Madurai,https://www.asus.com/in/microsite/shop-near-me/,COMPANY WEBSITE,Asus Multi-Brand Store,website
IID000000002141568,ASUSTEK COMPUTER INCORPORATION,Asus Multi Store -Vivin Computers,"No.29/3, GST Road, Kadaperi, Tambaram, Chennai, Tamil Nadu 600045",12.933477398072084,80.12488822079736,India,IND,600045,Tamil Nadu,Chennai,https://www.asus.com/in/microsite/shop-near-me/,COMPANY WEBSITE,Asus Multi-Brand Store,website
IID000000002141568,ASUSTEK COMPUTER INCORPORATION,Asus Exclusive store -Dotcom,"Shop No : AG63/AG31,Shanthi colony mainroad,Anna Nagar, Chennai 600040.",13.082153032141886,80.21585621869355,India,IND,600040,Tamil Nadu,Chennai,https://www.asus.com/in/microsite/shop-near-me/,COMPANY WEBSITE,Asus Exclusive Store,website
IID000000002141568,ASUSTEK COMPUTER INCORPORATION,Asus Exclusive Store -GBS System - K.K Nagar,"B139,Mahaveer Complex,Door No.6,Munusamy Salai,, K.K Nagar, Chennai-600078",13.0429408,80.1933289,India,IND,600078,Tamil Nadu,Chennai,https://www.asus.com/in/microsite/shop-near-me/,COMPANY WEBSITE,Asus Exclusive Store,website
IID000000002141568,ASUSTEK COMPUTER INCORPORATION,Asus Exclusive Store - Laptop Shoppee,"Shop No.4, Door No.322, Trunk Road, Porur, Chennai,  600116",13.0187187,80.14988679999999,India,IND,600116,Tamil Nadu,Chennai,https://www.asus.com/in/microsite/shop-near-me/,COMPANY WEBSITE,Asus Exclusive Store,website
IID000000002141568,ASUSTEK COMPUTER INCORPORATION,Asus Exclusive Store - GBS Systems,"Shop No 23, Trinity complex, 110, 4th avenue, Anna Main road, Ashok Nagar, Chennai, Tamil Nadu 600083",13.0413513,80.2157723,India,IND,600083,Tamil Nadu,Chennai,https://www.asus.com/in/microsite/shop-near-me/,COMPANY WEBSITE,Asus Exclusive Store,website
IID000000002141568,ASUSTEK COMPUTER INCORPORATION,Asus Exclusive Store -DOTCOM Express Avenue,"Express Avenue Mall, L-12 LGF, Express Estate, Royapettah, Chennai, Tamil Nadu",13.0600928,80.2623243,India,IND,600040,Tamil Nadu,Chennai,https://www.asus.com/in/microsite/shop-near-me/,COMPANY WEBSITE,Asus Exclusive Store,website
IID000000002141568,ASUSTEK COMPUTER INCORPORATION,Asus Exclusive Store -Dotcom,"BURKIT ROAD , SHOP NO 2 NEW NO 31 , OLD NO 14 T NAGAR",13.0343512,80.2347459,India,IND,600017,Tamil Nadu,Chennai,https://www.asus.com/in/microsite/shop-near-me/,COMPANY WEBSITE,Asus Exclusive Store,website
IID000000002141568,ASUSTEK COMPUTER INCORPORATION,Asus Exclusive Store -Dotcom Aerohub,"Shop No E308, TS No 1045, Aerohub, Chennai International Airport, MLCP Block, near, Grand Southern Trunk Rd, Meenambakkam, Chennai, Tamil Nadu",12.9811068,80.159623,India,IND,600027,Tamil Nadu,Chennai,https://www.asus.com/in/microsite/shop-near-me/,COMPANY WEBSITE,Asus Exclusive Store,website
IID000000002141568,ASUSTEK COMPUTER INCORPORATION,Asus Exclusive Store -DOTCOM Phoenix Marketcity,"2ND Floor Phoenix market city, Velachery, Chennai",12.9905058,80.2169764,India,IND,600042,Tamil Nadu,Chennai,https://www.asus.com/in/microsite/shop-near-me/,COMPANY WEBSITE,Asus Exclusive Store,website
IID000000002141568,ASUSTEK COMPUTER INCORPORATION,Asus Exclusive Store -Dotcom Adayar,"14/3 (119/1) DR MUTHULASKSHMI SALAI, LB ROAD ADYAR",13.0055447,80.2574128,India,IND,600020,Tamil Nadu,Chennai,https://www.asus.com/in/microsite/shop-near-me/,COMPANY WEBSITE,Asus Exclusive Store,website
IID000000002141568,ASUSTEK COMPUTER INCORPORATION,Asus Exclusive Store -GBS Systems,"173, Velachery Main Rd, Kamarajapuram, Sembakkam, Tambaram, Chennai, Tamil Nadu",12.9236921,80.1568704,India,IND,600073,Tamil Nadu,Chennai,https://www.asus.com/in/microsite/shop-near-me/,COMPANY WEBSITE,Asus Exclusive Store,website
IID000000002141568,ASUSTEK COMPUTER INCORPORATION,Asus Exclusive Store -GBS Systems,"Shop No 4/776, Old Mahabalipuram Road, Rajiv Gandhi Saalai, Thoraipakkam, opposite PTC Bus Stop, Chennai, Tamil Nadu 600097",12.934593,80.2329276,India,IND,600097,Tamil Nadu,Chennai,https://www.asus.com/in/microsite/shop-near-me/,COMPANY WEBSITE,Asus Exclusive Store,website
IID000000002141568,ASUSTEK COMPUTER INCORPORATION,Asus Exclusive Store - Dotcom Marina Mall,"Shop No LG 10, Marina Mall, Old Mahabalipuram Road, Nearby Nandhana Palace Hotel, Egattur, chennai, tamil nadu.",12.8360623,80.22951719999999,India,IND,603103,Tamil Nadu,Chennai,https://www.asus.com/in/microsite/shop-near-me/,COMPANY WEBSITE,Asus Exclusive Store,website
IID000000002141568,ASUSTEK COMPUTER INCORPORATION,ASUS Exclusive Store -Pacific Incorporation,"Shop No 1, Shriphal Building,Kailas Nagar,Near Government DED College,Nanded-431605",19.176488,77.304895,India,IND,431605,Maharashtra,Nanded,https://www.asus.com/in/microsite/shop-near-me/,COMPANY WEBSITE,Asus Exclusive Store,website
IID000000002141568,ASUSTEK COMPUTER INCORPORATION,ASUS Exclusive Store -Millenium Sound,"Gurudwara Rd, opposite Guru Nanak School, Opposite Indraprastha Complex, Near delhi Gate, Shakti Nagar, Udaipur, Rajasthan",24.5864892,73.6972557,India,IND,313001,Rajasthan,Udaipur,https://www.asus.com/in/microsite/shop-near-me/,COMPANY WEBSITE,Asus Exclusive Store,website
IID000000002141568,ASUSTEK COMPUTER INCORPORATION,Asus Exclusive Store -MS Infotech,"Shop No.21-22 , Near Celebration Bakery, Radhya Plaza , Sector.4 , Udaipur-313001.",24.5665649,73.720299,India,IND,313001,Rajasthan,Udaipur,https://www.asus.com/in/microsite/shop-near-me/,COMPANY WEBSITE,Asus Exclusive Store,website
IID000000002141568,ASUSTEK COMPUTER INCORPORATION,Asus Multi Store -Reliance Digital Nanded,"C113, Lotiya Cplx, Shivaji Ngr Rd Mahatma phule Mkt, Co Op Indl Estate, near Bharathi Metal Rolling Mills, Shivaji Nagar, Nanded, Maharashtra 431602",19.1668403,77.3051078,India,IND,431602,Maharashtra,Nanded,https://www.asus.com/in/microsite/shop-near-me/,COMPANY WEBSITE,Asus Multi-Brand Store,website
IID000000002141568,ASUSTEK COMPUTER INCORPORATION,Asus Multi Store -Croma Nanded,"Ground & 1st Floor, Mahatma Phule Market, ITI Rd, Industrial Estate, Vishnu Nagar, Nanded, Nanded-Waghala, Maharashtra 431602",19.16753,77.3047174,India,IND,431602,Maharashtra,Nanded,https://www.asus.com/in/microsite/shop-near-me/,COMPANY WEBSITE,Asus Multi-Brand Store,website
IID000000002141568,ASUSTEK COMPUTER INCORPORATION,ASUS Multi Store - Cybertak,"303,2Nd Floor, Lodha Complex, Court Chouraha, Udaipur",24.598284,73.7242486,India,IND,313001,Rajasthan,Udaipur,https://www.asus.com/in/microsite/shop-near-me/,COMPANY WEBSITE,Asus Multi-Brand Store,website
IID000000002141568,ASUSTEK COMPUTER INCORPORATION,ASUS Multi Store - Arihant Infotech,"A-26, Meera Market, Chittorgarh",24.8177628,74.5814773,India,IND,312001,Rajasthan,Udaipur,https://www.asus.com/in/microsite/shop-near-me/,COMPANY WEBSITE,Asus Multi-Brand Store,website
IID000000002141568,ASUSTEK COMPUTER INCORPORATION,ASUS Multi Store - Daimond Computer,Near Sani Mandir Veer Park Road Neemuch,24.4707485,74.9208772,India,IND,458441,Madhya Pradesh,Neemuch,https://www.asus.com/in/microsite/shop-near-me/,COMPANY WEBSITE,Asus Multi-Brand Store,website
IID000000002141568,ASUSTEK COMPUTER INCORPORATION,ASUS Multi Store - Amity Computech,"Near Main Bus Stand, Jhalawar",24.6228804,76.247912,India,IND,326001,Rajasthan,Jhalrapatan,https://www.asus.com/in/microsite/shop-near-me/,COMPANY WEBSITE,Asus Multi-Brand Store,website
IID000000002141568,ASUSTEK COMPUTER INCORPORATION,Asus Exclusive Store -Ozone Tech,"Shop No 1, Karni Complex, Kotri Rd, opposite Kaka Car bazar, Gumanpura, Kota, Rajasthan 324007",25.176893,75.850584,India,IND,324007,Rajasthan,Kota,https://www.asus.com/in/microsite/shop-near-me/,COMPANY WEBSITE,Asus Exclusive Store,website
IID000000002141568,ASUSTEK COMPUTER INCORPORATION,ASUS Multi Store - Balaji Softech,"117,Shopping Centre,Furniture Market, Kota 324007",25.159114,75.8679195,India,IND,324007,Rajasthan,Kota,https://www.asus.com/in/microsite/shop-near-me/,COMPANY WEBSITE,Asus Multi-Brand Store,website
IID000000002141568,ASUSTEK COMPUTER INCORPORATION,Asus Exclusive Store -Perfect World Computers - Sagar,"Shop No. 9, Opp. Govt. Excellence School, Ravindra Bhawan, Near Bus Stand, Sagar",23.8393594,78.7512603,India,IND,470001,Madhya Pradesh,Sagar,https://www.asus.com/in/microsite/shop-near-me/,COMPANY WEBSITE,Asus Exclusive Store,website
IID000000002141568,ASUSTEK COMPUTER INCORPORATION,Asus Exclusive Store -Navkar Agencies,"Shop No.949, Amrik Singh Road, Opp. SBI Bank, Bathinda, Punjab 151001",30.21916399999999,74.9356176,India,IND,151001,Punjab,Bathinda,https://www.asus.com/in/microsite/shop-near-me/,COMPANY WEBSITE,Asus Exclusive Store,website
IID000000002141568,ASUSTEK COMPUTER INCORPORATION,Asus Multi Store -AAA COMPUTERS,"20-A PUBLIC PARK(BASEMENT) SRI GANGANAGAR, Pincode -335001",29.92724979999999,73.8720927,India,IND,335001,Rajasthan,Ganganagar,https://www.asus.com/in/microsite/shop-near-me/,COMPANY WEBSITE,Asus Multi-Brand Store,website
IID000000002141568,ASUSTEK COMPUTER INCORPORATION,ASUS Multi Store - Computer Shoppee,Fazilka,30.4120793,74.07701,India,IND,152123,Punjab,Abohar,https://www.asus.com/in/microsite/shop-near-me/,COMPANY WEBSITE,Asus Multi-Brand Store,website
IID000000002141568,ASUSTEK COMPUTER INCORPORATION,ASUS Multi Store - Narang Computers,"Near Ashish Cinema, Town Road, Hanumangarh Junction",29.6344136,74.2531465,India,IND,335512,Rajasthan,Jodhpur,https://www.asus.com/in/microsite/shop-near-me/,COMPANY WEBSITE,Asus Multi-Brand Store,website
IID000000002141568,ASUSTEK COMPUTER INCORPORATION,Asus Multi Store -Computer World,Gt Road Near Pukhraj Cinema,30.2154897,74.9429607,India,IND,151001,Punjab,Bathinda,https://www.asus.com/in/microsite/shop-near-me/,COMPANY WEBSITE,Asus Multi-Brand Store,website
IID000000002141568,ASUSTEK COMPUTER INCORPORATION,S K Computers,"Dwarka Puri,Munjal Photo State wali Gali,Sirsa-125055",29.5368346,75.0318503,India,IND,125055,Haryana,Sirsa,https://www.asus.com/in/microsite/shop-near-me/,COMPANY WEBSITE,Asus Multi-Brand Store,website
IID000000002141568,ASUSTEK COMPUTER INCORPORATION,ASUS Multi Store - Galaxy The Computer Hut,57B 1St Floor Old Grain Market Faridkot Faridkot,30.6915141,74.7102958,India,IND,151203,Punjab,Faridkot,https://www.asus.com/in/microsite/shop-near-me/,COMPANY WEBSITE,Asus Multi-Brand Store,website
IID000000002141568,ASUSTEK COMPUTER INCORPORATION,ASUS Multi Store - Varun Computer & Services,"Main Gt Road, Near Bus Stand, Khanna",30.0938248,75.7836589,India,IND,148028,Punjab,Khanna,https://www.asus.com/in/microsite/shop-near-me/,COMPANY WEBSITE,Asus Multi-Brand Store,website
IID000000002141568,ASUSTEK COMPUTER INCORPORATION,ASUS Multi Store - Raj Computer,"Padhuan Bazar Chhak,Balasore-760001",19.3131336,84.7915999,India,IND,760001,Odisha,Balangir,https://www.asus.com/in/microsite/shop-near-me/,COMPANY WEBSITE,Asus Multi-Brand Store,website
IID000000002141568,ASUSTEK COMPUTER INCORPORATION,ASUS Multi Store -  Studio Tiptop,Infront Of Police Station Katni,23.8915161,80.4103957,India,IND,483501,Madhya Pradesh,Katni,https://www.asus.com/in/microsite/shop-near-me/,COMPANY WEBSITE,Asus Multi-Brand Store,website
IID000000002141568,ASUSTEK COMPUTER INCORPORATION,ASUS Exclusive Store - Seemax Technologies,"SCO-17-18 Leela bhawan Patiala, Punjab, 147001",30.33554939999999,76.3836243,India,IND,147001,Punjab,Patiala,https://www.asus.com/in/microsite/shop-near-me/,COMPANY WEBSITE,Asus Exclusive Store,website
IID000000002141568,ASUSTEK COMPUTER INCORPORATION,Asus Exclusive Store -Integrated Computer,"Chourasiya Complex, LIC Building, Shakti Vihar, Jeevan Jyoti Colony, Opposite Bus Stand, Rewa Road, Satna",24.5714135,80.84518039999999,India,IND,485001,Madhya Pradesh,Satna,https://www.asus.com/in/microsite/shop-near-me/,COMPANY WEBSITE,Asus Exclusive Store,website
IID000000002141568,ASUSTEK COMPUTER INCORPORATION,Asus Multi Store - Studio Tip Top,"In Front of City Kotwali, Raghunath Ganj, Katni",23.8346322,80.39319909999999,India,IND,483501,Madhya Pradesh,Katni,https://www.asus.com/in/microsite/shop-near-me/,COMPANY WEBSITE,Asus Multi-Brand Store,website
IID000000002141568,ASUSTEK COMPUTER INCORPORATION,Asus Exclusive Store -Integrated Computers,"Asus Exclusive Store - Integrated Computers, Near SPS Mall, Allahabad Road, Rewa",24.5448211,81.3103654,India,IND,486001,Madhya Pradesh,Rewa,https://www.asus.com/in/microsite/shop-near-me/,COMPANY WEBSITE,Asus Exclusive Store,website
IID000000002141568,ASUSTEK COMPUTER INCORPORATION,"Asus Exclusive Store -Alpha Digital, Ambala","156, Gandhi Market, Punjabi Mohalla, Sadar Bazar, Ambala Cantt, Haryana 133001",30.3416429,76.8408582,India,IND,133001,Haryana,Ambala Cantt,https://www.asus.com/in/microsite/shop-near-me/,COMPANY WEBSITE,Asus Exclusive Store,website
IID000000002141568,ASUSTEK COMPUTER INCORPORATION,Asus Exclusive StoreComputer Network,SCO- 347 Mugal Canal Karnal,29.6857348,76.9906273,India,IND,132001,Haryana,Karnal,https://www.asus.com/in/microsite/shop-near-me/,COMPANY WEBSITE,Asus Exclusive Store,website
IID000000002141568,ASUSTEK COMPUTER INCORPORATION,Asus Exclusive Store -Webstudio_Yamuna Nagar,"Web Studio, Shop No-22, DAV School Market, opposite Madhu Hotel, Yamuna Nagar, Haryana, , PIN Code- 135001",30.1365993,77.2967113,India,IND,135001,Haryana,Yamunanagar,https://www.asus.com/in/microsite/shop-near-me/,COMPANY WEBSITE,Asus Exclusive Store,website
IID000000002141568,ASUSTEK COMPUTER INCORPORATION,ASUS Multi Store -  Vivek Traders Llp,"2, Kheri Markanda, Kurukshetra, Panchkula, Haryana, 136118",30.0124711,76.8374995,India,IND,136118,Haryana,Kurukshetra,https://www.asus.com/in/microsite/shop-near-me/,COMPANY WEBSITE,Asus Multi-Brand Store,website
IID000000002141568,ASUSTEK COMPUTER INCORPORATION,ASUS Multi Store -Computer Shopee,Kdb (100 feet) Road. Near Bharma Chowk. Kurukshetra,29.95785470000001,76.83719479999999,India,IND,136118,Haryana,Kurukshetra,https://www.asus.com/in/microsite/shop-near-me/,COMPANY WEBSITE,Asus Multi-Brand Store,website
IID000000002141568,ASUSTEK COMPUTER INCORPORATION,ASUS Multi Store -Alpha Computer,"Showroom 6340/16/86,Ahluwalia Building, Gandhi Market",30.377589,76.86056499999995,India,IND,133001,Haryana,Ambala Cantt,https://www.asus.com/in/microsite/shop-near-me/,COMPANY WEBSITE,Asus Multi-Brand Store,website
IID000000002141568,ASUSTEK COMPUTER INCORPORATION,ASUS Multi Store -  Velox Retail Pvt Ltd,Sec 12 Market Sco 11,29.6386837,77.0794705,India,IND,132001,Haryana,Karnal,https://www.asus.com/in/microsite/shop-near-me/,COMPANY WEBSITE,Asus Multi-Brand Store,website
IID000000002141568,ASUSTEK COMPUTER INCORPORATION,ASUS Multi Store -  Web Studio,"First Floor,Near Madhu Hotel Yamunanagar",30.1014803,77.2749964,India,IND,135001,Haryana,Yamunanagar,https://www.asus.com/in/microsite/shop-near-me/,COMPANY WEBSITE,Asus Multi-Brand Store,website
IID000000002141568,ASUSTEK COMPUTER INCORPORATION,Asus Exclusive Store -Digital Stores,"48, Haridwar Rd, opp. to Arihant Hospital, Shastri Nagar, Dharampur, Dehradun, Uttarakhand 248001",30.2920921,78.0599695,India,IND,248001,Uttarakhand,Dehradun,https://www.asus.com/in/microsite/shop-near-me/,COMPANY WEBSITE,Asus Exclusive Store,website
IID000000002141568,ASUSTEK COMPUTER INCORPORATION,Asus Exclusive Store -Infiniti Enterprises,"Shop No B-1, Ambika Complex, GMS Road, Ballupur Chowk, Dehradun, Uttarakhand 248001",30.33314469999999,78.0113332,India,IND,248001,Uttarakhand,Dehradun,https://www.asus.com/in/microsite/shop-near-me/,COMPANY WEBSITE,Asus Exclusive Store,website
IID000000002141568,ASUSTEK COMPUTER INCORPORATION,Asus Exclusive Store -Sudharma Infotech,"Shop No-17, Upper Ground Floor, Capri Trade Centre, Connaught Place, Chakrata Road 248001",30.3345816,78.0537813,India,IND,248001,Uttarakhand,Dehradun,https://www.asus.com/in/microsite/shop-near-me/,COMPANY WEBSITE,Asus Exclusive Store,website
IID000000002141568,ASUSTEK COMPUTER INCORPORATION,ASUS Multi Store -  Computer Empire,"1204/3,Geeta Mandir Road,Panipat",29.4107176,77.0794705,India,IND,132103,Haryana,Panipat,https://www.asus.com/in/microsite/shop-near-me/,COMPANY WEBSITE,Asus Multi-Brand Store,website
IID000000002141568,ASUSTEK COMPUTER INCORPORATION,ASUS Multi Store -  Ascent Computers,"Shop No 555, Sudarshan Plaza, Civil Lines, Roorkee",29.8999034,77.9053182,India,IND,247667,Uttarakhand,Dehradun,https://www.asus.com/in/microsite/shop-near-me/,COMPANY WEBSITE,Asus Multi-Brand Store,website
IID000000002141568,ASUSTEK COMPUTER INCORPORATION,Asus Multi Store -Computer World,"Computer world ,Shop No 29, Raj Plaza, 75, Rajpur Rd, Ravindrapuri, Road, Rajpur, Dehradun, Uttarakhand 248001",30.3359779,78.0540042,India,IND,248001,Uttarakhand,Dehradun,https://www.asus.com/in/microsite/shop-near-me/,COMPANY WEBSITE,Asus Multi-Brand Store,website
IID000000002141568,ASUSTEK COMPUTER INCORPORATION,Asus Multi Store -Shri Tirupati Infotech,"SHOP NO. 148/18, SOUTH CIVIL LINES, Prakash Chowk, Muzaffarnagar, Uttar Pradesh 251001",29.46878389999999,77.70338629999999,India,IND,251001,Uttar Pradesh,Muzaffarnagar,https://www.asus.com/in/microsite/shop-near-me/,COMPANY WEBSITE,Asus Multi-Brand Store,website
IID000000002141568,ASUSTEK COMPUTER INCORPORATION,ASUS MULTI STORE-SHRI TIRUPATI INFOTECH,"Prakash Chowk, Shiv Chowk, Civil Lines South, Muzaffarnagar, Uttar Pradesh 251002",29.4682482,77.7036835,India,IND,251002,Uttar Pradesh,Muzaffarnagar,https://www.asus.com/in/microsite/shop-near-me/,COMPANY WEBSITE,Asus Multi-Brand Store,website
IID000000002141568,ASUSTEK COMPUTER INCORPORATION,Asus Exclusive Store - S.R. Infotech,"01, Near Kiran Cinema Road, Gaya, Bihar 823001",24.7960542,85.01104219999999,India,IND,823001,Bihar,Gaya,https://www.asus.com/in/microsite/shop-near-me/,COMPANY WEBSITE,Asus Exclusive Store,website
IID000000002141568,ASUSTEK COMPUTER INCORPORATION,Asus Exclusive Store - S R INFOTECH,KIRANI GHAT MARKET DULHINGANJ RIVER SIDE ROAD NEAR KIRAN CINEMA HALL PIN 823001,24.79603655799706,85.0112474606286,India,IND,823001,Bihar,Gaya,https://www.asus.com/in/microsite/shop-near-me/,COMPANY WEBSITE,Asus Exclusive Store,website
IID000000002141568,ASUSTEK COMPUTER INCORPORATION,Asus Multi Store -S.R.Infotech,"1st Store Add- Shop no. 6, Ambedkar Market, Dak Banglow Road, Gaya, Bihar/   2nd Store- Near Kiran Cinema Road, Gaya-Bihar",24.79150303501577,85.00343700644007,India,IND,823001,Bihar,Gaya,https://www.asus.com/in/microsite/shop-near-me/,COMPANY WEBSITE,Asus Multi-Brand Store,website
IID000000002141568,ASUSTEK COMPUTER INCORPORATION,ASUS Multi Store - Cost 2 Cost,"Ground Floor, Urmila Tower, Bank More, Dhanbad",24.4799934,85.4581859,India,IND,825409,Jharkhand,Dhanbad,https://www.asus.com/in/microsite/shop-near-me/,COMPANY WEBSITE,Asus Multi-Brand Store,website
IID000000002141568,ASUSTEK COMPUTER INCORPORATION,ASUS Multi Store - Royal Computers,"Gopal Complex, Steel Gate, Saraidhela, Dhanbad",23.7995984,86.433914,India,IND,826001,Jharkhand,Dhanbad,https://www.asus.com/in/microsite/shop-near-me/,COMPANY WEBSITE,Asus Multi-Brand Store,website
IID000000002141568,ASUSTEK COMPUTER INCORPORATION,Asus Multi Store - Jhajharia Computers,"Store Add  : UG-38, Urmila Tower, Bank More, Dhanbad, Jharkhand-826001",23.7983765,86.44008459999999,India,IND,826001,Jharkhand,Dhanbad,https://www.asus.com/in/microsite/shop-near-me/,COMPANY WEBSITE,Asus Multi-Brand Store,website
IID000000002141568,ASUSTEK COMPUTER INCORPORATION,ASUS Multi Store - Delta Computer,"11,Netaji Rd,Nr Netaji Statue",24.1162512,88.2607188,India,IND,742103,Chattisgarh,Raipur,https://www.asus.com/in/microsite/shop-near-me/,COMPANY WEBSITE,Asus Multi-Brand Store,website
IID000000002141568,ASUSTEK COMPUTER INCORPORATION,ASUS Multi Store - Compu Star,"45,K.N.Road,Berhampore,Wb",24.0868075,88.2513609,India,IND,742101,West Bengal,Berhampore,https://www.asus.com/in/microsite/shop-near-me/,COMPANY WEBSITE,Asus Multi-Brand Store,website
IID000000002141568,ASUSTEK COMPUTER INCORPORATION,Asus Exclusive Store - Delhi Computers,"Bansulitala, Makdampur, Malda",24.9759504,88.1584129,India,IND,732101,West Bengal,Siliguri,https://www.asus.com/in/microsite/shop-near-me/,COMPANY WEBSITE,Asus Multi-Brand Store,website
IID000000002141568,ASUSTEK COMPUTER INCORPORATION,Asus Exclusive Store -Comsol Digital,"2ND FLOOR , RP MALL , NEAR VELANKANNI MADHA SHRINE KOLLAM , KERALA",8.8895134,76.5858811,India,IND,691001,Kerala,Kollam,https://www.asus.com/in/microsite/shop-near-me/,COMPANY WEBSITE,Asus Exclusive Store,website
IID000000002141568,ASUSTEK COMPUTER INCORPORATION,ASUS Multi Store - Jai Hanuman Enterprise,"Bilpar, Graveyard Road ,Silchar, 788001",24.82321,92.8016369,India,IND,788001,Assam,Silchar,https://www.asus.com/in/microsite/shop-near-me/,COMPANY WEBSITE,Asus Multi-Brand Store,website
IID000000002141568,ASUSTEK COMPUTER INCORPORATION,Asus Exclusive Store -JARK IT Retail Pvt Ltd,"No66, Bala Vinayagar Kovil St, Tuticorin",8.8028512,78.1408313,India,IND,628003,Tamil Nadu,Thoothukudi,https://www.asus.com/in/microsite/shop-near-me/,COMPANY WEBSITE,Asus Exclusive Store,website
IID000000002141568,ASUSTEK COMPUTER INCORPORATION,Asus Exclusive Store -Avalon Digital World,"Avalon Digital world , 1B, Tower complex, TVM Road, Murugankurichi, Tirunelveli.",8.726429,77.728836,India,IND,627002,Tamil Nadu,Tirunelveli,https://www.asus.com/in/microsite/shop-near-me/,COMPANY WEBSITE,Asus Exclusive Store,website
IID000000002141568,ASUSTEK COMPUTER INCORPORATION,ASUS Multi Store - Ideal Computers,"Thangal Bazar,Khoyathong Road, Near. Hotel Continantal, Imphal West-795001",24.8139816,93.9393926,India,IND,795001,North East,Guwahati,https://www.asus.com/in/microsite/shop-near-me/,COMPANY WEBSITE,Asus Multi-Brand Store,website
IID000000002141568,ASUSTEK COMPUTER INCORPORATION,ASUS Multi Store - Kayathri Infotech,"93/1A, Devapuram Road, Near Indian Bank Melur, Tuticorin.",8.7899319,78.1464665,India,IND,628003,Tamil Nadu,Thoothukudi,https://www.asus.com/in/microsite/shop-near-me/,COMPANY WEBSITE,Asus Multi-Brand Store,website
IID000000002141568,ASUSTEK COMPUTER INCORPORATION,Asus Multi Store - Avalon Data Products,"11D/12,Tower complex,Trivandrum Road, Palayamkottai",8.726413,77.728976,India,IND,627002,Tamil Nadu,Tirunelveli,https://www.asus.com/in/microsite/shop-near-me/,COMPANY WEBSITE,Asus Multi-Brand Store,website
IID000000002141568,ASUSTEK COMPUTER INCORPORATION,Asus Exclusive Store -Eswar Digitronics,"Muruga Rajendra Complex, Hadadi Road, Nittuvalli, Nearby Karnataka Bank, Davanagere, Karnataka 577002",14.4615586,75.9205491,India,IND,577002,Karnataka,Davanagere,https://www.asus.com/in/microsite/shop-near-me/,COMPANY WEBSITE,Asus Exclusive Store,website
IID000000002141568,ASUSTEK COMPUTER INCORPORATION,Asus Multi Store - Croma Davanagere,"Door No 1647, Hadadi Rd, near Bharat Petrol Pump, Ambedkar Circle, KTJ Nagar, Nittuvalli, Davanagere, Karnataka 577001",14.4620825,75.9209127,India,IND,577001,Karnataka,Davanagere,https://www.asus.com/in/microsite/shop-near-me/,COMPANY WEBSITE,Asus Multi-Brand Store,website
IID000000002141568,ASUSTEK COMPUTER INCORPORATION,ASUS Multi Store -  Rishabh Computers,"15/749,Raju Road,Kamala Nagar,Anantapur.",14.6941362,77.5991921,India,IND,515001,Andhra Pradesh,Anantapur,https://www.asus.com/in/microsite/shop-near-me/,COMPANY WEBSITE,Asus Multi-Brand Store,website
IID000000002141568,ASUSTEK COMPUTER INCORPORATION,Asus Exclusive Store -San Infocom LLP,"Shop No.01,Plot No.16 Kuruvilla House Apartment, Canada Corner, Sharanpur Link Road, Nashik",20.0121518,73.7823393,India,IND,422005,Maharashtra,Nashik,https://www.asus.com/in/microsite/shop-near-me/,COMPANY WEBSITE,Asus Exclusive Store,website
IID000000002141568,ASUSTEK COMPUTER INCORPORATION,Asus Multi Store -Croma - Nashik Road,"Pushpa Park, Nashik Pune Highway, near Inox Signal, Ganesh Baba Nagar, Nashik, Maharashtra 422011",19.9794822,73.807147,India,IND,422011,Maharashtra,Nashik,https://www.asus.com/in/microsite/shop-near-me/,COMPANY WEBSITE,Asus Multi-Brand Store,website
IID000000002141568,ASUSTEK COMPUTER INCORPORATION,Asus Multi Store -Croma Solitario Nashik,"CROMA,Unit No.1/2/101,Hari Prabha Solitario Kulkarni Baug,Off College Road,Thatte Marg",20.0080275,73.763875,India,IND,422005,Maharashtra,Nashik,https://www.asus.com/in/microsite/shop-near-me/,COMPANY WEBSITE,Asus Multi-Brand Store,website
IID000000002141568,ASUSTEK COMPUTER INCORPORATION,ASUS Multi Store - Nice Computers,"1St Floor, Pingale Complex,Ghankar Lane,Nasik-422001",19.998518,73.7919103,India,IND,422001,Maharashtra,Nashik,https://www.asus.com/in/microsite/shop-near-me/,COMPANY WEBSITE,Asus Multi-Brand Store,website
IID000000002141568,ASUSTEK COMPUTER INCORPORATION,Asus Exclusive Store -SV Computers N Gadgets,"Asus exclusive store, sundar lodge complex shop no 6,beside rtc bus stand,gnt road, nellore,spsr nellore,ap-524003.",14.443311,79.9778867,India,IND,524003,Andhra Pradesh,Nellore,https://www.asus.com/in/microsite/shop-near-me/,COMPANY WEBSITE,Asus Exclusive Store,website
IID000000002141568,ASUSTEK COMPUTER INCORPORATION,ASUS Multi Store -  Futuretech Systems,"21/323,1St Floor,Meena Complex,Near 7Roads,Kadapa",14.4783475,78.821275,India,IND,516001,Andhra Pradesh,Kadapa,https://www.asus.com/in/microsite/shop-near-me/,COMPANY WEBSITE,Asus Multi-Brand Store,website
IID000000002141568,ASUSTEK COMPUTER INCORPORATION,Asus Exclusive Store -Cherry Corporation,"C 11,Motiwala Trade Center , New Samarthnagar, Nirala Bazar, Aurangabad, Maharashtra 431003",19.8806254,75.3234473,India,IND,431001,Maharashtra,Aurangabad,https://www.asus.com/in/microsite/shop-near-me/,COMPANY WEBSITE,Asus Exclusive Store,website
IID000000002141568,ASUSTEK COMPUTER INCORPORATION,Asus Exclusive Store -Cyber Peripherals,"Shop N0 1 to 4 Ashiwarad Complex Osmanpura,CITY-AURANGABAD-431001",19.8799355,75.3324723,India,IND,431001,Maharashtra,Aurangabad,https://www.asus.com/in/microsite/shop-near-me/,COMPANY WEBSITE,Asus Exclusive Store,website
IID000000002141568,ASUSTEK COMPUTER INCORPORATION,ASUS Exclusive Store -Cyber Peripherals Prozone,"G 53 Ground Floor, Prozone Mall, API Rd, MIDC Industrial Area, Chilkalthana, Aurangabad, Maharashtra 431002",19.8772671,75.3713631,India,IND,431002,Maharashtra,Aurangabad,https://www.asus.com/in/microsite/shop-near-me/,COMPANY WEBSITE,Asus Exclusive Store,website
IID000000002141568,ASUSTEK COMPUTER INCORPORATION,ASUS Multi Store - Space Computer,"102, Bhagya, Opp Sant Eknath Rang Mandir Osmanpura,City-Aurangabad-431005",19.8540341,75.3353875,India,IND,431005,Maharashtra,Aurangabad,https://www.asus.com/in/microsite/shop-near-me/,COMPANY WEBSITE,Asus Multi-Brand Store,website
IID000000002141568,ASUSTEK COMPUTER INCORPORATION,Asus Multistore -Croma Prozone Aurangabad,"Prozone mall, MIDC Chikalthana area, Airport road, Aurangabad.",19.876448,75.372174,India,IND,431210,Maharashtra,Aurangabad,https://www.asus.com/in/microsite/shop-near-me/,COMPANY WEBSITE,Asus Multi-Brand Store,website
IID000000002141568,ASUSTEK COMPUTER INCORPORATION,Asus Multi Store -Reliance Digital - Prozone Mall,"Ground Floor, API corner, Prozone Mall MIDC, MIDC Industrial Area, Chilkalthana, Chhatrapati Sambhajinagar (Aurangabad), Maharashtra 431001",19.8776129,75.37190799999999,India,IND,431001,Maharashtra,Aurangabad,https://www.asus.com/in/microsite/shop-near-me/,COMPANY WEBSITE,Asus Multi-Brand Store,website
IID000000002141568,ASUSTEK COMPUTER INCORPORATION,Asus Exclusive Store -Nice computer,"Shop No 24, Heera Panna Market, Pur Rd, nearby Friends Mobile Shop, Gandhi Nagar, Bhilwara, Rajasthan 311001",25.3443834,74.6273643,India,IND,311001,Rajasthan,Bhilwara,https://www.asus.com/in/microsite/shop-near-me/,COMPANY WEBSITE,Asus Exclusive Store,website
IID000000002141568,ASUSTEK COMPUTER INCORPORATION,Asus Exclusive Store - Computer Service Point,"Below Punjab National Bank, Jatpura gate, Bazar ward, Main road, Chandrapur",19.97377239999999,79.2997705,India,IND,442401,Maharashtra,Chandrapur,https://www.asus.com/in/microsite/shop-near-me/,COMPANY WEBSITE,Asus Exclusive Store,website
IID000000002141568,ASUSTEK COMPUTER INCORPORATION,ASUS Multi Store - Intechcomputerandcommbhilwara,"Behind Hari Shewa Dharmshala, Bhilwara",25.3366306,74.5697617,India,IND,311001,Rajasthan,Bhilwara,https://www.asus.com/in/microsite/shop-near-me/,COMPANY WEBSITE,Asus Multi-Brand Store,website
IID000000002141568,ASUSTEK COMPUTER INCORPORATION,Asus Multi Store -Computer World,"Computer World, Shop No. C1, 2nd Floor, Khobragade Complex, Near Azad Garden, Chandrapur",19.9521545,79.2956939,India,IND,442402,Maharashtra,Chandrapur,https://www.asus.com/in/microsite/shop-near-me/,COMPANY WEBSITE,Asus Multi-Brand Store,website
IID000000002141568,ASUSTEK COMPUTER INCORPORATION,ASUS Multi Store - Computer Service Point,"Pathanpura Road, Opp. Jain Bhavan, Chandrapur- 442401",19.9732279,79.2986668,India,IND,442401,Maharashtra,Chandrapur,https://www.asus.com/in/microsite/shop-near-me/,COMPANY WEBSITE,Asus Multi-Brand Store,website
IID000000002141568,ASUSTEK COMPUTER INCORPORATION,ASUS Multi Store - Hmb Distributors,"58, First Floor, Ajmer Bhawan Patch Area Nagori Garden, Bhilwara",25.3565096,74.7571147,India,IND,311011,Rajasthan,Bhilwara,https://www.asus.com/in/microsite/shop-near-me/,COMPANY WEBSITE,Asus Multi-Brand Store,website
IID000000002141568,ASUSTEK COMPUTER INCORPORATION,Asus Multi store-Anna Computers,"258,civil lines, Near Trade tax office, Jhansi",25.443594,78.57110879999999,India,IND,284001,Uttar Pradesh,Jhansi,https://www.asus.com/in/microsite/shop-near-me/,COMPANY WEBSITE,Asus Multi-Brand Store,website
IID000000002141568,ASUSTEK COMPUTER INCORPORATION,ASUS Multi Store -Mangalam Distributors,"171-D,Civil Lines,Jail Chauraha,Jhansi",25.442370353147012,78.57553965029298,India,IND,284001,Uttar Pradesh,Jhansi,https://www.asus.com/in/microsite/shop-near-me/,COMPANY WEBSITE,Asus Multi-Brand Store,website
IID000000002141568,ASUSTEK COMPUTER INCORPORATION,Asus Multi Store -Info 2000,"Sukhmani Tower, SHOP No.40-41-42, BASEMENT, Kochar Market Rd, opposite Police Station, Ludhiana, Punjab 141001",30.8969707,75.8386043,India,IND,141001,Punjab,Ludhiana,https://www.asus.com/in/microsite/shop-near-me/,COMPANY WEBSITE,Asus Multi-Brand Store,website
IID000000002141568,ASUSTEK COMPUTER INCORPORATION,ASUS Multi Store - Classic Infotech,"Near Malwa School, Kochar Market",30.9058885,75.8359645,India,IND,141001,Punjab,Ludhiana,https://www.asus.com/in/microsite/shop-near-me/,COMPANY WEBSITE,Asus Multi-Brand Store,website
IID000000002141568,ASUSTEK COMPUTER INCORPORATION,Asus Exclusive Store -K.C. Electronics,"B-26/216 Kochar Market, Ludhiana, Punjab 141001",30.8954495,75.8370652,India,IND,141001,Punjab,Ludhiana,https://www.asus.com/in/microsite/shop-near-me/,COMPANY WEBSITE,Asus Exclusive Store,website
IID000000002141568,ASUSTEK COMPUTER INCORPORATION,Asus Exclusive Store -Creative Laptop Point,"3695/7, Kochar Market, Near ICICI bank opp new khurana Radio, Ludhiana, Punjab 141001",30.8955087,75.83717639999999,India,IND,141001,Punjab,Ludhiana,https://www.asus.com/in/microsite/shop-near-me/,COMPANY WEBSITE,Asus Exclusive Store,website
IID000000002141568,ASUSTEK COMPUTER INCORPORATION,Asus Exclusive Store -Computer City,"109, Kochar market , Opp  Bank of india , Ludhiana - 141002",30.895907196436863,75.83743898945475,India,IND,141002,Punjab,Ludhiana,https://www.asus.com/in/microsite/shop-near-me/,COMPANY WEBSITE,Asus Exclusive Store,website
IID000000002141568,ASUSTEK COMPUTER INCORPORATION,Asus Exclusive Store -Creative Laptop Point,"Aneja market Shop No - 1/2 near gujral dhaba, Kochar market model gram",30.8964632,75.8382714,India,IND,141002,Punjab,Ludhiana,https://www.asus.com/in/microsite/shop-near-me/,COMPANY WEBSITE,Asus Exclusive Store,website
